{"type":"FeatureCollection","features":[{"type":"Feature","properties":{"county":"Alleghany","county_tier":"2","poverty_county":"29.2","median_inc_county":"39735","code":"30316","name":"Piney Creek Elementary","city":"Piney Creek","full_address":"559 Piney Creek Sch Road, Piney Creek, NC 28663","long":"-81.304084","lat":"36.547357","district":"Alleghany County Schools","percent_EDS":"49.7","SPgrade":"B","EOG_18_19":"77.8","EOG_quintile":"2"},"geometry":{"type":"Point","coordinates":[-81.304084,36.547357]}},{"type":"Feature","properties":{"county":"Caswell","county_tier":"1","poverty_county":"26.5","median_inc_county":"45517","code":"170334","name":"North Elementary","city":"Providence","full_address":"10390 NC Hwy 86 N, Providence, NC 27315","long":"-79.396737","lat":"36.529202","district":"Caswell County Schools","percent_EDS":"57.4","SPgrade":"C","EOG_18_19":"64.3","EOG_quintile":"2"},"geometry":{"type":"Point","coordinates":[-79.396737,36.529202]}},{"type":"Feature","properties":{"county":"Surry","county_tier":"2","poverty_county":"22.6","median_inc_county":"46342","code":"862310","name":"Jones Intermediate","city":"Mount Airy","full_address":"2170 Riverside Drive, Mount Airy, NC 27030","long":"-80.58758","lat":"36.527713","district":"Mount Airy City Schools","percent_EDS":"64.1","SPgrade":"D","EOG_18_19":"49.9","EOG_quintile":"3"},"geometry":{"type":"Point","coordinates":[-80.58758,36.527713]}},{"type":"Feature","properties":{"county":"Currituck","county_tier":"3","poverty_county":"12.4","median_inc_county":"64426","code":"270316","name":"Moyock Elementary","city":"Moyock","full_address":"255 Tulls Creek Road, Moyock, NC 27958","long":"-76.1736643","lat":"36.5245198","district":"Currituck County Schools","percent_EDS":"17.8","SPgrade":"B","EOG_18_19":"68.7","EOG_quintile":"2"},"geometry":{"type":"Point","coordinates":[-76.173664,36.52452]}},{"type":"Feature","properties":{"county":"Surry","county_tier":"2","poverty_county":"22.6","median_inc_county":"46342","code":"86T000","name":"Millennium Charter Academy","city":"Mount Airy","full_address":"500 Old Springs Rd, Mount Airy, NC 27030","long":"-80.5973901","lat":"36.5164742","district":"Charter Schools","percent_EDS":"18.7","SPgrade":"B","EOG_18_19":"71.2","EOG_quintile":"2"},"geometry":{"type":"Point","coordinates":[-80.59739,36.516474]}},{"type":"Feature","properties":{"county":"Alleghany","county_tier":"2","poverty_county":"29.2","median_inc_county":"39735","code":"30304","name":"Alleghany High","city":"Sparta","full_address":"404 Trojan Avenue, Sparta, NC 28675","long":"-81.1228223","lat":"36.513866","district":"Alleghany County Schools","percent_EDS":"51.9","SPgrade":"B","EOG_18_19":"56.5","EOG_quintile":"3"},"geometry":{"type":"Point","coordinates":[-81.122822,36.513866]}},{"type":"Feature","properties":{"county":"Surry","county_tier":"2","poverty_county":"22.6","median_inc_county":"46342","code":"860320","name":"Flat Rock Elementary","city":"Mount Airy","full_address":"1539 E Pine St, Mount Airy, NC 27030","long":"-80.568901","lat":"36.513148","district":"Surry County Schools","percent_EDS":"59.1","SPgrade":"B","EOG_18_19":"65.7","EOG_quintile":"2"},"geometry":{"type":"Point","coordinates":[-80.568901,36.513148]}},{"type":"Feature","properties":{"county":"Currituck","county_tier":"3","poverty_county":"12.4","median_inc_county":"64426","code":"270312","name":"Knotts Island Elementary","city":"Knotts Island","full_address":"413 Woodleigh Road, Knotts Island, NC 27950","long":"-75.9191392","lat":"36.5126916","district":"Currituck County Schools","percent_EDS":"34.6","SPgrade":"B","EOG_18_19":"71.2","EOG_quintile":"2"},"geometry":{"type":"Point","coordinates":[-75.919139,36.512692]}},{"type":"Feature","properties":{"county":"Surry","county_tier":"2","poverty_county":"22.6","median_inc_county":"46342","code":"862312","name":"Mount Airy High","city":"Mount Airy","full_address":"1011 N South St, Mount Airy, NC 27030","long":"-80.615433","lat":"36.5120414","district":"Mount Airy City Schools","percent_EDS":"44.2","SPgrade":"B","EOG_18_19":"70","EOG_quintile":"2"},"geometry":{"type":"Point","coordinates":[-80.615433,36.512041]}},{"type":"Feature","properties":{"county":"Northampton","county_tier":"1","poverty_county":"34.7","median_inc_county":"37233","code":"660336","name":"Northampton County High School","city":"Gaston","full_address":"152 Hurricane Drive, Gaston, NC 27832","long":"-77.652447","lat":"36.5108559","district":"Northampton County Schools","percent_EDS":"63.8","SPgrade":"D","EOG_18_19":"7","EOG_quintile":"5"},"geometry":{"type":"Point","coordinates":[-77.652447,36.510856]}},{"type":"Feature","properties":{"county":"Alleghany","county_tier":"2","poverty_county":"29.2","median_inc_county":"39735","code":"30320","name":"Sparta Elementary","city":"Sparta","full_address":"450 N Main Street, Sparta, NC 28675","long":"-81.1269367","lat":"36.5095717","district":"Alleghany County Schools","percent_EDS":"69.9","SPgrade":"C","EOG_18_19":"53.4","EOG_quintile":"3"},"geometry":{"type":"Point","coordinates":[-81.126937,36.509572]}},{"type":"Feature","properties":{"county":"Surry","county_tier":"2","poverty_county":"22.6","median_inc_county":"46342","code":"860302","name":"Cedar Ridge Elementary","city":"Lowgap","full_address":"734 Flippin Road, Lowgap, NC 27024","long":"-80.80008","lat":"36.508659","district":"Surry County Schools","percent_EDS":"70","SPgrade":"C","EOG_18_19":"60.3","EOG_quintile":"2"},"geometry":{"type":"Point","coordinates":[-80.80008,36.508659]}},{"type":"Feature","properties":{"county":"Northampton","county_tier":"1","poverty_county":"34.7","median_inc_county":"37233","code":"660320","name":"Gaston Elementary","city":"Gaston","full_address":"400 Broughton Street, Gaston, NC 27832","long":"-77.6512038","lat":"36.507984","district":"Northampton County Schools","percent_EDS":"74.1","SPgrade":"D","EOG_18_19":"43.6","EOG_quintile":"3"},"geometry":{"type":"Point","coordinates":[-77.651204,36.507984]}},{"type":"Feature","properties":{"county":"Northampton","county_tier":"1","poverty_county":"34.7","median_inc_county":"37233","code":"660325","name":"Gaston Middle","city":"Gaston","full_address":"400 Broughton Street, Gaston, NC 27832","long":"-77.6512038","lat":"36.507984","district":"Northampton County Schools","percent_EDS":"69.3","SPgrade":"F","EOG_18_19":"28.1","EOG_quintile":"4"},"geometry":{"type":"Point","coordinates":[-77.651204,36.507984]}},{"type":"Feature","properties":{"county":"Rockingham","county_tier":"1","poverty_county":"24.2","median_inc_county":"41869","code":"790330","name":"J E Holmes Middle","city":"Eden","full_address":"211 N Pierce St, Eden, NC 27288","long":"-79.738162","lat":"36.505611","district":"Rockingham County Schools","percent_EDS":"66.3","SPgrade":"C","EOG_18_19":"51","EOG_quintile":"3"},"geometry":{"type":"Point","coordinates":[-79.738162,36.505611]}},{"type":"Feature","properties":{"county":"Northampton","county_tier":"1","poverty_county":"34.7","median_inc_county":"37233","code":"660400","name":"Northampton Early College","city":"Gaston","full_address":"4671 NC 46 HWY West, Gaston, NC 27832","long":"-77.6653674","lat":"36.5055166","district":"Northampton County Schools","percent_EDS":"33.1","SPgrade":"B","EOG_18_19":"64.8","EOG_quintile":"2"},"geometry":{"type":"Point","coordinates":[-77.665367,36.505517]}},{"type":"Feature","properties":{"county":"Rockingham","county_tier":"1","poverty_county":"24.2","median_inc_county":"41869","code":"790354","name":"John M Morehead High","city":"Eden","full_address":"134 N Pierce St, Eden, NC 27288","long":"-79.735951","lat":"36.505088","district":"Rockingham County Schools","percent_EDS":"52.1","SPgrade":"C","EOG_18_19":"29","EOG_quintile":"4"},"geometry":{"type":"Point","coordinates":[-79.735951,36.505088]}},{"type":"Feature","properties":{"county":"Surry","county_tier":"2","poverty_county":"22.6","median_inc_county":"46342","code":"860336","name":"North Surry High","city":"Mount Airy","full_address":"2440 W Pine Street, Mount Airy, NC 27030","long":"-80.673766","lat":"36.504944","district":"Surry County Schools","percent_EDS":"51.8","SPgrade":"C","EOG_18_19":"52.7","EOG_quintile":"3"},"geometry":{"type":"Point","coordinates":[-80.673766,36.504944]}},{"type":"Feature","properties":{"county":"Rockingham","county_tier":"1","poverty_county":"24.2","median_inc_county":"41869","code":"790310","name":"Central Elementary","city":"Eden","full_address":"435 E Stadium Dr, Eden, NC 27288","long":"-79.730385","lat":"36.504803","district":"Rockingham County Schools","percent_EDS":"53.8","SPgrade":"C","EOG_18_19":"60.9","EOG_quintile":"2"},"geometry":{"type":"Point","coordinates":[-79.730385,36.504803]}},{"type":"Feature","properties":{"county":"Person","county_tier":"2","poverty_county":"22.6","median_inc_county":"50149","code":"73A000","name":"Bethel Hill Charter","city":"Roxboro","full_address":"401 Bethel Hill School Road, Roxboro, NC 27574","long":"-78.9175594","lat":"36.5047579","district":"Charter Schools","percent_EDS":"44","SPgrade":"B","EOG_18_19":"68.9","EOG_quintile":"2"},"geometry":{"type":"Point","coordinates":[-78.917559,36.504758]}},{"type":"Feature","properties":{"county":"Northampton","county_tier":"1","poverty_county":"34.7","median_inc_county":"37233","code":"66A000","name":"KIPP Gaston College Preparatory","city":"Gaston","full_address":"320 Pleasant Hill Road, Gaston, NC 27832","long":"-77.640179","lat":"36.504154","district":"Charter Schools","percent_EDS":"43","SPgrade":"C","EOG_18_19":"53.4","EOG_quintile":"3"},"geometry":{"type":"Point","coordinates":[-77.640179,36.504154]}},{"type":"Feature","properties":{"county":"Currituck","county_tier":"3","poverty_county":"12.4","median_inc_county":"64426","code":"270318","name":"Moyock Middle","city":"Moyock","full_address":"216 Survey Road, Moyock, NC 27958","long":"-76.156626","lat":"36.501651","district":"Currituck County Schools","percent_EDS":"26.5","SPgrade":"B","EOG_18_19":"62.2","EOG_quintile":"2"},"geometry":{"type":"Point","coordinates":[-76.156626,36.501651]}},{"type":"Feature","properties":{"county":"Alleghany","county_tier":"2","poverty_county":"29.2","median_inc_county":"39735","code":"30308","name":"Glade Creek Elementary","city":"Ennice","full_address":"32 Glade Creek Sch Road, Ennice, NC 28623","long":"-80.979231","lat":"36.50085","district":"Alleghany County Schools","percent_EDS":"66.5","SPgrade":"B","EOG_18_19":"63.8","EOG_quintile":"2"},"geometry":{"type":"Point","coordinates":[-80.979231,36.50085]}},{"type":"Feature","properties":{"county":"Stokes","county_tier":"2","poverty_county":"16.6","median_inc_county":"50826","code":"850348","name":"Sandy Ridge Elementary","city":"Sandy Ridge","full_address":"1070 Amostown Road, Sandy Ridge, NC 27046","long":"-80.100645","lat":"36.499682","district":"Stokes County Schools","percent_EDS":"61","SPgrade":"B","EOG_18_19":"66.8","EOG_quintile":"2"},"geometry":{"type":"Point","coordinates":[-80.100645,36.499682]}},{"type":"Feature","properties":{"county":"Surry","county_tier":"2","poverty_county":"22.6","median_inc_county":"46342","code":"860326","name":"J Sam Gentry Middle","city":"Mount Airy","full_address":"1915 W Pine Street, Mount Airy, NC 27030","long":"-80.655409","lat":"36.4993399","district":"Surry County Schools","percent_EDS":"60.8","SPgrade":"B","EOG_18_19":"65.9","EOG_quintile":"2"},"geometry":{"type":"Point","coordinates":[-80.655409,36.49934]}},{"type":"Feature","properties":{"county":"Surry","county_tier":"2","poverty_county":"22.6","median_inc_county":"46342","code":"862316","name":"Mount Airy Middle","city":"Mount Airy","full_address":"249 Hamburg Street, Mount Airy, NC 27030","long":"-80.5904494","lat":"36.4968352","district":"Mount Airy City Schools","percent_EDS":"58.9","SPgrade":"B","EOG_18_19":"71.7","EOG_quintile":"2"},"geometry":{"type":"Point","coordinates":[-80.590449,36.496835]}},{"type":"Feature","properties":{"county":"Rockingham","county_tier":"1","poverty_county":"24.2","median_inc_county":"41869","code":"790318","name":"Douglass Elementary","city":"Eden","full_address":"408 Price St., Eden, NC 27288","long":"-79.7800308","lat":"36.4933855","district":"Rockingham County Schools","percent_EDS":"63.9","SPgrade":"C","EOG_18_19":"59.9","EOG_quintile":"3"},"geometry":{"type":"Point","coordinates":[-79.780031,36.493386]}},{"type":"Feature","properties":{"county":"Rockingham","county_tier":"1","poverty_county":"24.2","median_inc_county":"41869","code":"790344","name":"Leaksville-Spray Elementary","city":"Eden","full_address":"415 Highland Dr, Eden, NC 27288","long":"-79.7581248","lat":"36.4926704","district":"Rockingham County Schools","percent_EDS":"62.8","SPgrade":"D","EOG_18_19":"48.7","EOG_quintile":"3"},"geometry":{"type":"Point","coordinates":[-79.758125,36.49267]}},{"type":"Feature","properties":{"county":"Stokes","county_tier":"2","poverty_county":"16.6","median_inc_county":"50826","code":"850338","name":"Piney Grove Middle","city":"Lawsonville","full_address":"3415 Piney Grove Church Road, Lawsonville, NC 27022","long":"-80.2350067","lat":"36.4903968","district":"Stokes County Schools","percent_EDS":"50.9","SPgrade":"C","EOG_18_19":"57.2","EOG_quintile":"3"},"geometry":{"type":"Point","coordinates":[-80.235007,36.490397]}},{"type":"Feature","properties":{"county":"Surry","county_tier":"2","poverty_county":"22.6","median_inc_county":"46342","code":"860324","name":"Franklin Elementary","city":"Mount Airy","full_address":"519 S Franklin Road, Mount Airy, NC 27030","long":"-80.631","lat":"36.4894139","district":"Surry County Schools","percent_EDS":"73.8","SPgrade":"C","EOG_18_19":"61.9","EOG_quintile":"2"},"geometry":{"type":"Point","coordinates":[-80.631,36.489414]}},{"type":"Feature","properties":{"county":"Stokes","county_tier":"2","poverty_county":"16.6","median_inc_county":"50826","code":"850320","name":"Lawsonville Elementary","city":"Lawsonville","full_address":"4611 NC 8 Hwy North, Lawsonville, NC 27022","long":"-80.2322495","lat":"36.486047","district":"Stokes County Schools","percent_EDS":"48.9","SPgrade":"C","EOG_18_19":"57.6","EOG_quintile":"3"},"geometry":{"type":"Point","coordinates":[-80.232249,36.486047]}},{"type":"Feature","properties":{"county":"Surry","county_tier":"2","poverty_county":"22.6","median_inc_county":"46342","code":"860330","name":"Meadowview Magnet Middle","city":"Mount Airy","full_address":"1282 McKinney Road, Mount Airy, NC 27030","long":"-80.65327","lat":"36.4816969","district":"Surry County Schools","percent_EDS":"66","SPgrade":"C","EOG_18_19":"61.7","EOG_quintile":"2"},"geometry":{"type":"Point","coordinates":[-80.65327,36.481697]}},{"type":"Feature","properties":{"county":"Northampton","county_tier":"1","poverty_county":"34.7","median_inc_county":"37233","code":"660360","name":"Willis Hare Elementary","city":"Pendleton","full_address":"479 Willis Hare Road, Pendleton, NC 27862","long":"-77.188922","lat":"36.478311","district":"Northampton County Schools","percent_EDS":"68.3","SPgrade":"D","EOG_18_19":"41.6","EOG_quintile":"3"},"geometry":{"type":"Point","coordinates":[-77.188922,36.478311]}},{"type":"Feature","properties":{"county":"Gates","county_tier":"2","poverty_county":"19.5","median_inc_county":"51746","code":"370304","name":"Buckland Elementary","city":"Gates","full_address":"448 NC 37 North, Gates, NC 27937","long":"-76.759473","lat":"36.468814","district":"Gates County Schools","percent_EDS":"52.4","SPgrade":"C","EOG_18_19":"56.5","EOG_quintile":"3"},"geometry":{"type":"Point","coordinates":[-76.759473,36.468814]}},{"type":"Feature","properties":{"county":"Rockingham","county_tier":"1","poverty_county":"24.2","median_inc_county":"41869","code":"790347","name":"Lincoln Elementary","city":"Ruffin","full_address":"2660 Oregon Hill Road, Ruffin, NC 27326","long":"-79.649071","lat":"36.466987","district":"Rockingham County Schools","percent_EDS":"57.1","SPgrade":"C","EOG_18_19":"55.9","EOG_quintile":"3"},"geometry":{"type":"Point","coordinates":[-79.649071,36.466987]}},{"type":"Feature","properties":{"county":"Halifax","county_tier":"1","poverty_county":"31.3","median_inc_county":"36760","code":"421304","name":"Belmont Elementary School","city":"Roanoke Rapids","full_address":"1517 Bolling Road, Roanoke Rapids, NC 27870","long":"-77.674563","lat":"36.464829","district":"Roanoke Rapids City Schools","percent_EDS":"80.4","SPgrade":"C","EOG_18_19":"42.8","EOG_quintile":"3"},"geometry":{"type":"Point","coordinates":[-77.674563,36.464829]}},{"type":"Feature","properties":{"county":"Stokes","county_tier":"2","poverty_county":"16.6","median_inc_county":"50826","code":"850332","name":"North Stokes High","city":"Danbury","full_address":"1350 N Stokes Sch Rd, Danbury, NC 27016","long":"-80.28031","lat":"36.464439","district":"Stokes County Schools","percent_EDS":"45.2","SPgrade":"B","EOG_18_19":"60.5","EOG_quintile":"2"},"geometry":{"type":"Point","coordinates":[-80.28031,36.464439]}},{"type":"Feature","properties":{"county":"Vance","county_tier":"1","poverty_county":"32.9","median_inc_county":"40263","code":"910340","name":"New Hope Elementary","city":"Henderson","full_address":"10199 NC 39 Hwy N, Henderson, NC 27537","long":"-78.442096","lat":"36.4643118","district":"Vance County Schools","percent_EDS":"75.1","SPgrade":"D","EOG_18_19":"47.3","EOG_quintile":"3"},"geometry":{"type":"Point","coordinates":[-78.442096,36.464312]}},{"type":"Feature","properties":{"county":"Rockingham","county_tier":"1","poverty_county":"24.2","median_inc_county":"41869","code":"790390","name":"Stoneville Elementary","city":"Stoneville","full_address":"203 Stone St, Stoneville, NC 27048","long":"-79.904987","lat":"36.4632409","district":"Rockingham County Schools","percent_EDS":"71.6","SPgrade":"C","EOG_18_19":"50.5","EOG_quintile":"3"},"geometry":{"type":"Point","coordinates":[-79.904987,36.463241]}},{"type":"Feature","properties":{"county":"Ashe","county_tier":"2","poverty_county":"23.3","median_inc_county":"41864","code":"50305","name":"Ashe County Middle","city":"Warrensville","full_address":"255 Northwest Lane, Warrensville, NC 28693","long":"-81.509979","lat":"36.462739","district":"Ashe County Schools","percent_EDS":"55.4","SPgrade":"B","EOG_18_19":"72","EOG_quintile":"2"},"geometry":{"type":"Point","coordinates":[-81.509979,36.462739]}},{"type":"Feature","properties":{"county":"Granville","county_tier":"2","poverty_county":"18.4","median_inc_county":"58956","code":"390336","name":"Joe Toler-Oak Hill Elementary","city":"Oxford","full_address":"8176 Hwy 96, Oxford, NC 27565","long":"-78.732","lat":"36.462733","district":"Granville County Schools","percent_EDS":"65.9","SPgrade":"C","EOG_18_19":"58.5","EOG_quintile":"3"},"geometry":{"type":"Point","coordinates":[-78.732,36.462733]}},{"type":"Feature","properties":{"county":"Person","county_tier":"2","poverty_county":"22.6","median_inc_county":"50149","code":"730368","name":"Woodland Elementary","city":"Semora","full_address":"7391 Semora Rd, Semora, NC 27343","long":"-79.0822332","lat":"36.4623813","district":"Person County Schools","percent_EDS":"32.8","SPgrade":"B","EOG_18_19":"70.5","EOG_quintile":"2"},"geometry":{"type":"Point","coordinates":[-79.082233,36.462381]}},{"type":"Feature","properties":{"county":"Ashe","county_tier":"2","poverty_county":"23.3","median_inc_county":"41864","code":"50310","name":"Blue Ridge Elementary","city":"Warrensville","full_address":"5778 NC Hwy 88 W, Warrensville, NC 28693","long":"-81.531441","lat":"36.4618417","district":"Ashe County Schools","percent_EDS":"60.1","SPgrade":"B","EOG_18_19":"71.9","EOG_quintile":"2"},"geometry":{"type":"Point","coordinates":[-81.531441,36.461842]}},{"type":"Feature","properties":{"county":"Surry","county_tier":"2","poverty_county":"22.6","median_inc_county":"46342","code":"860356","name":"Westfield Elementary","city":"Pilot Mountain","full_address":"273 Jessup Grove Church Rd, Pilot Mountain, NC 27041","long":"-80.494905","lat":"36.459477","district":"Surry County Schools","percent_EDS":"70.2","SPgrade":"C","EOG_18_19":"59.7","EOG_quintile":"3"},"geometry":{"type":"Point","coordinates":[-80.494905,36.459477]}},{"type":"Feature","properties":{"county":"Halifax","county_tier":"1","poverty_county":"31.3","median_inc_county":"36760","code":"421336","name":"Roanoke Rapids Early College High","city":"Roanoke Rapids","full_address":"800 Hamilton Street, Roanoke Rapids, NC 27870","long":"-77.6538362","lat":"36.4588878","district":"Roanoke Rapids City Schools","percent_EDS":"51.4","SPgrade":"C","EOG_18_19":"59.2","EOG_quintile":"3"},"geometry":{"type":"Point","coordinates":[-77.653836,36.458888]}},{"type":"Feature","properties":{"county":"Halifax","county_tier":"1","poverty_county":"31.3","median_inc_county":"36760","code":"421316","name":"Roanoke Rapids High School","city":"Roanoke Rapids","full_address":"800 Hamilton Street, Roanoke Rapids, NC 27870","long":"-77.6538362","lat":"36.4588878","district":"Roanoke Rapids City Schools","percent_EDS":"52.8","SPgrade":"C","EOG_18_19":"43.1","EOG_quintile":"3"},"geometry":{"type":"Point","coordinates":[-77.653836,36.458888]}},{"type":"Feature","properties":{"county":"Warren","county_tier":"1","poverty_county":"29.7","median_inc_county":"38430","code":"930340","name":"Northside K-8","city":"Norlina","full_address":"164 Elementary Ave, Norlina, NC 27563","long":"-78.1845782","lat":"36.4565504","district":"Warren County Schools","percent_EDS":"53.2","SPgrade":"D","EOG_18_19":"44.2","EOG_quintile":"3"},"geometry":{"type":"Point","coordinates":[-78.184578,36.45655]}},{"type":"Feature","properties":{"county":"Halifax","county_tier":"1","poverty_county":"31.3","median_inc_county":"36760","code":"421328","name":"Manning Elementary School","city":"Roanoke Rapids","full_address":"940 Park Avenue, Roanoke Rapids, NC 27870","long":"-77.642612","lat":"36.4520952","district":"Roanoke Rapids City Schools","percent_EDS":"62.8","SPgrade":"C","EOG_18_19":"59.3","EOG_quintile":"3"},"geometry":{"type":"Point","coordinates":[-77.642612,36.452095]}},{"type":"Feature","properties":{"county":"Surry","county_tier":"2","poverty_county":"22.6","median_inc_county":"46342","code":"860360","name":"White Plains Elementary","city":"Mount Airy","full_address":"710 Cadle Ford Rd, Mount Airy, NC 27030","long":"-80.666379","lat":"36.448503","district":"Surry County Schools","percent_EDS":"58.2","SPgrade":"B","EOG_18_19":"70.3","EOG_quintile":"2"},"geometry":{"type":"Point","coordinates":[-80.666379,36.448503]}},{"type":"Feature","properties":{"county":"Halifax","county_tier":"1","poverty_county":"31.3","median_inc_county":"36760","code":"420328","name":"Everetts Elementary S.T.E.M. Academy","city":"Roanoke Rapids","full_address":"4391 Highway 158, Roanoke Rapids, NC 27870","long":"-77.7446678","lat":"36.4449469","district":"Halifax County Schools","percent_EDS":"71.2","SPgrade":"F","EOG_18_19":"29.5","EOG_quintile":"4"},"geometry":{"type":"Point","coordinates":[-77.744668,36.444947]}},{"type":"Feature","properties":{"county":"Halifax","county_tier":"1","poverty_county":"31.3","median_inc_county":"36760","code":"420376","name":"William R Davie Middle S.T.E.M. Academy","city":"Roanoke Rapids","full_address":"4391 Hwy 158, Roanoke Rapids, NC 27870","long":"-77.7446678","lat":"36.4449469","district":"Halifax County Schools","percent_EDS":"61.5","SPgrade":"D","EOG_18_19":"39.2","EOG_quintile":"4"},"geometry":{"type":"Point","coordinates":[-77.744668,36.444947]}},{"type":"Feature","properties":{"county":"Currituck","county_tier":"3","poverty_county":"12.4","median_inc_county":"64426","code":"270311","name":"The JP Knapp ECH (i)School","city":"Currituck","full_address":"2966 Caratoke Hwy, Currituck, NC 27929","long":"-76.0152197","lat":"36.4448126","district":"Currituck County Schools","percent_EDS":"18.5","SPgrade":"A","EOG_18_19":"93.4","EOG_quintile":"1"},"geometry":{"type":"Point","coordinates":[-76.01522,36.444813]}},{"type":"Feature","properties":{"county":"Halifax","county_tier":"1","poverty_county":"31.3","median_inc_county":"36760","code":"421306","name":"Chaloner Middle School","city":"Roanoke Rapids","full_address":"2100 Virginia Avenue, Roanoke Rapids, NC 27870","long":"-77.6596078","lat":"36.4410516","district":"Roanoke Rapids City Schools","percent_EDS":"64.8","SPgrade":"C","EOG_18_19":"57.1","EOG_quintile":"3"},"geometry":{"type":"Point","coordinates":[-77.659608,36.441052]}},{"type":"Feature","properties":{"county":"Hertford","county_tier":"1","poverty_county":"30.6","median_inc_county":"38216","code":"460332","name":"Riverview Elementary","city":"Murfreesboro","full_address":"236 US 158 Business, Murfreesboro, NC 27855","long":"-77.07536","lat":"36.4390069","district":"Hertford County Schools","percent_EDS":"66.3","SPgrade":"D","EOG_18_19":"48.6","EOG_quintile":"3"},"geometry":{"type":"Point","coordinates":[-77.07536,36.439007]}},{"type":"Feature","properties":{"county":"Person","county_tier":"2","poverty_county":"22.6","median_inc_county":"50149","code":"730340","name":"North End Elementary","city":"Roxboro","full_address":"378 Mill Creek Rd, Roxboro, NC 27574","long":"-78.9054546","lat":"36.4388739","district":"Person County Schools","percent_EDS":"57.6","SPgrade":"C","EOG_18_19":"55.3","EOG_quintile":"3"},"geometry":{"type":"Point","coordinates":[-78.905455,36.438874]}},{"type":"Feature","properties":{"county":"Granville","county_tier":"2","poverty_county":"18.4","median_inc_county":"58956","code":"390360","name":"Stovall-Shaw Elementary","city":"Stovall","full_address":"7696 Hwy 15 N, Stovall, NC 27582","long":"-78.5763221","lat":"36.4386131","district":"Granville County Schools","percent_EDS":"65","SPgrade":"D","EOG_18_19":"47.1","EOG_quintile":"3"},"geometry":{"type":"Point","coordinates":[-78.576322,36.438613]}},{"type":"Feature","properties":{"county":"Northampton","county_tier":"1","poverty_county":"34.7","median_inc_county":"37233","code":"660308","name":"Conway Middle","city":"Conway","full_address":"400 East Main Street, Conway, NC 27820","long":"-77.2238997","lat":"36.4382772","district":"Northampton County Schools","percent_EDS":"64.5","SPgrade":"F","EOG_18_19":"23.9","EOG_quintile":"4"},"geometry":{"type":"Point","coordinates":[-77.2239,36.438277]}},{"type":"Feature","properties":{"county":"Currituck","county_tier":"3","poverty_county":"12.4","median_inc_county":"64426","code":"270310","name":"Shawboro Elementary School","city":"Shawboro","full_address":"370 Shawboro Road, Shawboro, NC 27973","long":"-76.086962","lat":"36.437194","district":"Currituck County Schools","percent_EDS":"33.8","SPgrade":"C","EOG_18_19":"62","EOG_quintile":"2"},"geometry":{"type":"Point","coordinates":[-76.086962,36.437194]}},{"type":"Feature","properties":{"county":"Stokes","county_tier":"2","poverty_county":"16.6","median_inc_county":"50826","code":"850328","name":"Nancy Reynolds Elementary","city":"Westfield","full_address":"1585 NC 66 Hwy North, Westfield, NC 27053","long":"-80.3445417","lat":"36.4370304","district":"Stokes County Schools","percent_EDS":"61.4","SPgrade":"B","EOG_18_19":"73.7","EOG_quintile":"2"},"geometry":{"type":"Point","coordinates":[-80.344542,36.43703]}},{"type":"Feature","properties":{"county":"Gates","county_tier":"2","poverty_county":"19.5","median_inc_county":"51746","code":"370308","name":"Central Middle School","city":"Gatesville","full_address":"362 US Hwy 158 W, Gatesville, NC 27938","long":"-76.7274762","lat":"36.4364316","district":"Gates County Schools","percent_EDS":"49","SPgrade":"C","EOG_18_19":"55.6","EOG_quintile":"3"},"geometry":{"type":"Point","coordinates":[-76.727476,36.436432]}},{"type":"Feature","properties":{"county":"Ashe","county_tier":"2","poverty_county":"23.3","median_inc_county":"41864","code":"50330","name":"Mountain View Elementary","city":"Jefferson","full_address":"2789 Hwy 221 N, Jefferson, NC 28640","long":"-81.443943","lat":"36.433898","district":"Ashe County Schools","percent_EDS":"63.4","SPgrade":"B","EOG_18_19":"69.9","EOG_quintile":"2"},"geometry":{"type":"Point","coordinates":[-81.443943,36.433898]}},{"type":"Feature","properties":{"county":"Warren","county_tier":"1","poverty_county":"29.7","median_inc_county":"38430","code":"930354","name":"Warren County Middle","city":"Warrenton","full_address":"118 Campus Drive, Warrenton, NC 27589","long":"-78.1679856","lat":"36.4331685","district":"Warren County Schools","percent_EDS":"63.2","SPgrade":"D","EOG_18_19":"35.6","EOG_quintile":"4"},"geometry":{"type":"Point","coordinates":[-78.167986,36.433169]}},{"type":"Feature","properties":{"county":"Warren","county_tier":"1","poverty_county":"29.7","median_inc_county":"38430","code":"930352","name":"Warren County High","city":"Warrenton","full_address":"149 Campus Drive, Warrenton, NC 27589","long":"-78.1676608","lat":"36.4326057","district":"Warren County Schools","percent_EDS":"46.6","SPgrade":"D","EOG_18_19":"18.1","EOG_quintile":"5"},"geometry":{"type":"Point","coordinates":[-78.167661,36.432606]}},{"type":"Feature","properties":{"county":"Warren","county_tier":"1","poverty_county":"29.7","median_inc_county":"38430","code":"930700","name":"Warren New Tech High","city":"Warrenton","full_address":"219 US Hwy 158 Bypass, Warrenton, NC 27589","long":"-77.9167567","lat":"36.4323832","district":"Warren County Schools","percent_EDS":"36.8","SPgrade":"C","EOG_18_19":"37.2","EOG_quintile":"4"},"geometry":{"type":"Point","coordinates":[-77.916757,36.432383]}},{"type":"Feature","properties":{"county":"Person","county_tier":"2","poverty_county":"22.6","median_inc_county":"50149","code":"730350","name":"Person Early College Innovation & Ldrshp","city":"Roxboro","full_address":"1715 College Dr, Roxboro, NC 27573","long":"-78.979532","lat":"36.4314529","district":"Person County Schools","percent_EDS":"37.8","SPgrade":"C","EOG_18_19":"53.7","EOG_quintile":"3"},"geometry":{"type":"Point","coordinates":[-78.979532,36.431453]}},{"type":"Feature","properties":{"county":"Hertford","county_tier":"1","poverty_county":"30.6","median_inc_county":"38216","code":"460318","name":"Hertford County Middle","city":"Murfreesboro","full_address":"1850 Hwy 11N, Murfreesboro, NC 27855","long":"-77.0887329","lat":"36.429706","district":"Hertford County Schools","percent_EDS":"58.2","SPgrade":"D","EOG_18_19":"28.5","EOG_quintile":"4"},"geometry":{"type":"Point","coordinates":[-77.088733,36.429706]}},{"type":"Feature","properties":{"county":"Person","county_tier":"2","poverty_county":"22.6","median_inc_county":"50149","code":"730344","name":"Northern Middle","city":"Roxboro","full_address":"1935 Carver Dr, Roxboro, NC 27574","long":"-78.9780474","lat":"36.4282915","district":"Person County Schools","percent_EDS":"71.4","SPgrade":"D","EOG_18_19":"47.3","EOG_quintile":"3"},"geometry":{"type":"Point","coordinates":[-78.978047,36.428292]}},{"type":"Feature","properties":{"county":"Halifax","county_tier":"1","poverty_county":"31.3","median_inc_county":"36760","code":"422310","name":"Roanoke Valley Early College","city":"Weldon","full_address":"100 College Dr, 600 Building, Weldon, NC 27890","long":"-77.6176477","lat":"36.4281834","district":"Weldon City Schools","percent_EDS":"30","SPgrade":"B","EOG_18_19":"61","EOG_quintile":"2"},"geometry":{"type":"Point","coordinates":[-77.617648,36.428183]}},{"type":"Feature","properties":{"county":"Gates","county_tier":"2","poverty_county":"19.5","median_inc_county":"51746","code":"370324","name":"T S Cooper Elementary","city":"Sunbury","full_address":"237 NC 32 South, Sunbury, NC 27979","long":"-76.6067607","lat":"36.4244573","district":"Gates County Schools","percent_EDS":"51.8","SPgrade":"D","EOG_18_19":"40.2","EOG_quintile":"3"},"geometry":{"type":"Point","coordinates":[-76.606761,36.424457]}},{"type":"Feature","properties":{"county":"Warren","county_tier":"1","poverty_county":"29.7","median_inc_county":"38430","code":"930348","name":"Vaughan Elementary","city":"Macon","full_address":"2936 US Hwy 158E, Macon, NC 27551","long":"-77.9988787","lat":"36.4215377","district":"Warren County Schools","percent_EDS":"59.7","SPgrade":"C","EOG_18_19":"53.6","EOG_quintile":"3"},"geometry":{"type":"Point","coordinates":[-77.998879,36.421538]}},{"type":"Feature","properties":{"county":"Halifax","county_tier":"1","poverty_county":"31.3","median_inc_county":"36760","code":"422314","name":"Weldon Elementary Global Academy","city":"Weldon","full_address":"805 Washington Ave, Weldon, NC 27890","long":"-77.6005263","lat":"36.4210276","district":"Weldon City Schools","percent_EDS":"71.3","SPgrade":"F","EOG_18_19":"25.2","EOG_quintile":"4"},"geometry":{"type":"Point","coordinates":[-77.600526,36.421028]}},{"type":"Feature","properties":{"county":"Person","county_tier":"2","poverty_county":"22.6","median_inc_county":"50149","code":"730354","name":"Stories Creek Elementary","city":"Roxboro","full_address":"133 Stories Creek School Road, Roxboro, NC 27574","long":"-79.0020702","lat":"36.4209298","district":"Person County Schools","percent_EDS":"48.2","SPgrade":"B","EOG_18_19":"65.8","EOG_quintile":"2"},"geometry":{"type":"Point","coordinates":[-79.00207,36.42093]}},{"type":"Feature","properties":{"county":"Northampton","county_tier":"1","poverty_county":"34.7","median_inc_county":"37233","code":"660306","name":"Central Elementary","city":"Jackson","full_address":"9742 NC Hwy 305, Jackson, NC 27845","long":"-77.434285","lat":"36.418549","district":"Northampton County Schools","percent_EDS":"75.8","SPgrade":"D","EOG_18_19":"46.3","EOG_quintile":"3"},"geometry":{"type":"Point","coordinates":[-77.434285,36.418549]}},{"type":"Feature","properties":{"county":"Rockingham","county_tier":"1","poverty_county":"24.2","median_inc_county":"41869","code":"790314","name":"Dalton McMichael High","city":"Mayodan","full_address":"6845 Hwy 135, Mayodan, NC 27027","long":"-79.9426166","lat":"36.4172668","district":"Rockingham County Schools","percent_EDS":"42.8","SPgrade":"C","EOG_18_19":"53.2","EOG_quintile":"3"},"geometry":{"type":"Point","coordinates":[-79.942617,36.417267]}},{"type":"Feature","properties":{"county":"Caswell","county_tier":"1","poverty_county":"26.5","median_inc_county":"45517","code":"170339","name":"Oakwood Elementary","city":"Yanceyville","full_address":"274 Oakwood Drive, Yanceyville, NC 27379","long":"-79.33247","lat":"36.416392","district":"Caswell County Schools","percent_EDS":"63.9","SPgrade":"C","EOG_18_19":"47.7","EOG_quintile":"3"},"geometry":{"type":"Point","coordinates":[-79.33247,36.416392]}},{"type":"Feature","properties":{"county":"Halifax","county_tier":"1","poverty_county":"31.3","median_inc_county":"36760","code":"422315","name":"Weldon STEM High School Career Academies","city":"Weldon","full_address":"415 County Road, Weldon, NC 27890","long":"-77.6108078","lat":"36.4131869","district":"Weldon City Schools","percent_EDS":"63.7","SPgrade":"D","EOG_18_19":"12.4","EOG_quintile":"5"},"geometry":{"type":"Point","coordinates":[-77.610808,36.413187]}},{"type":"Feature","properties":{"county":"Caswell","county_tier":"1","poverty_county":"26.5","median_inc_county":"45517","code":"170338","name":"N L Dillard Middle","city":"Yanceyville","full_address":"255 Hatchett Road, Yanceyville, NC 27379","long":"-79.3654755","lat":"36.4131177","district":"Caswell County Schools","percent_EDS":"66","SPgrade":"D","EOG_18_19":"36.6","EOG_quintile":"4"},"geometry":{"type":"Point","coordinates":[-79.365476,36.413118]}},{"type":"Feature","properties":{"county":"Person","county_tier":"2","poverty_county":"22.6","median_inc_county":"50149","code":"730352","name":"Person High","city":"Roxboro","full_address":"1010 Ridge Rd, Roxboro, NC 27573","long":"-78.9804339","lat":"36.4104554","district":"Person County Schools","percent_EDS":"50.3","SPgrade":"C","EOG_18_19":"43.4","EOG_quintile":"3"},"geometry":{"type":"Point","coordinates":[-78.980434,36.410455]}},{"type":"Feature","properties":{"county":"Gates","county_tier":"2","poverty_county":"19.5","median_inc_county":"51746","code":"370316","name":"Gatesville Elementary","city":"Gatesville","full_address":"709 Main Street, Gatesville, NC 27938","long":"-76.7552099","lat":"36.4103117","district":"Gates County Schools","percent_EDS":"61.3","SPgrade":"B","EOG_18_19":"63.6","EOG_quintile":"2"},"geometry":{"type":"Point","coordinates":[-76.75521,36.410312]}},{"type":"Feature","properties":{"county":"Person","county_tier":"2","poverty_county":"22.6","median_inc_county":"50149","code":"730334","name":"North Elementary","city":"Roxboro","full_address":"260 Henderson Rd, Roxboro, NC 27573","long":"-78.9662297","lat":"36.4070011","district":"Person County Schools","percent_EDS":"83","SPgrade":"D","EOG_18_19":"36.8","EOG_quintile":"4"},"geometry":{"type":"Point","coordinates":[-78.96623,36.407001]}},{"type":"Feature","properties":{"county":"Rockingham","county_tier":"1","poverty_county":"24.2","median_inc_county":"41869","code":"790394","name":"Western Rockingham Middle","city":"Madison","full_address":"915 NW Ayersville Rd, Madison, NC 27025","long":"-79.9815924","lat":"36.404779","district":"Rockingham County Schools","percent_EDS":"59.5","SPgrade":"C","EOG_18_19":"56.8","EOG_quintile":"3"},"geometry":{"type":"Point","coordinates":[-79.981592,36.404779]}},{"type":"Feature","properties":{"county":"Caswell","county_tier":"1","poverty_county":"26.5","median_inc_county":"45517","code":"170316","name":"Bartlett Yancey High","city":"Yanceyville","full_address":"466 Main Street E, Yanceyville, NC 27379","long":"-79.3270991","lat":"36.4037802","district":"Caswell County Schools","percent_EDS":"55.1","SPgrade":"C","EOG_18_19":"33.3","EOG_quintile":"4"},"geometry":{"type":"Point","coordinates":[-79.327099,36.40378]}},{"type":"Feature","properties":{"county":"Gates","county_tier":"2","poverty_county":"19.5","median_inc_county":"51746","code":"370312","name":"Gates County Senior High","city":"Gatesville","full_address":"088 Hwy 158 West, Gatesville, NC 27938","long":"-76.7530098","lat":"36.4034878","district":"Gates County Schools","percent_EDS":"45.4","SPgrade":"C","EOG_18_19":"50.7","EOG_quintile":"3"},"geometry":{"type":"Point","coordinates":[-76.75301,36.403488]}},{"type":"Feature","properties":{"county":"Warren","county_tier":"1","poverty_county":"29.7","median_inc_county":"38430","code":"930360","name":"Warren Early College High","city":"Warrenton","full_address":"210 Ridgeway St, Warrenton, NC 27589","long":"-78.1553541","lat":"36.4028262","district":"Warren County Schools","percent_EDS":"36","SPgrade":"B","EOG_18_19":"71.2","EOG_quintile":"2"},"geometry":{"type":"Point","coordinates":[-78.155354,36.402826]}},{"type":"Feature","properties":{"county":"Rockingham","county_tier":"1","poverty_county":"24.2","median_inc_county":"41869","code":"790362","name":"John W Dillard Academy","city":"Madison","full_address":"705 NW Ayersville Rd, Madison, NC 27025","long":"-79.9758243","lat":"36.4021637","district":"Rockingham County Schools","percent_EDS":"55.2","SPgrade":"C","EOG_18_19":"60","EOG_quintile":"2"},"geometry":{"type":"Point","coordinates":[-79.975824,36.402164]}},{"type":"Feature","properties":{"county":"Surry","county_tier":"2","poverty_county":"22.6","median_inc_county":"46342","code":"860340","name":"Pilot Mountain Middle","city":"Pilot Mountain","full_address":"543 Old Westfield Road, Pilot Mountain, NC 27041","long":"-80.47266","lat":"36.4013975","district":"Surry County Schools","percent_EDS":"48.2","SPgrade":"B","EOG_18_19":"72.3","EOG_quintile":"2"},"geometry":{"type":"Point","coordinates":[-80.47266,36.401398]}},{"type":"Feature","properties":{"county":"Rockingham","county_tier":"1","poverty_county":"24.2","median_inc_county":"41869","code":"790398","name":"Wentworth Elementary","city":"Reidsville","full_address":"8806 NC Hwy 87, Reidsville, NC 27320","long":"-79.744134","lat":"36.397277","district":"Rockingham County Schools","percent_EDS":"47.5","SPgrade":"B","EOG_18_19":"69.3","EOG_quintile":"2"},"geometry":{"type":"Point","coordinates":[-79.744134,36.397277]}},{"type":"Feature","properties":{"county":"Vance","county_tier":"1","poverty_county":"32.9","median_inc_county":"40263","code":"910346","name":"E O Young Jr Elementary","city":"Henderson","full_address":"6655 Broad Street, Henderson, NC 27537","long":"-78.3296196","lat":"36.396691","district":"Vance County Schools","percent_EDS":"65.3","SPgrade":"D","EOG_18_19":"37.6","EOG_quintile":"4"},"geometry":{"type":"Point","coordinates":[-78.32962,36.396691]}},{"type":"Feature","properties":{"county":"Surry","county_tier":"2","poverty_county":"22.6","median_inc_county":"46342","code":"860306","name":"Central Middle","city":"Dobson","full_address":"883 Zephyr Rd, Dobson, NC 27017","long":"-80.7345207","lat":"36.3958614","district":"Surry County Schools","percent_EDS":"68.9","SPgrade":"C","EOG_18_19":"61.3","EOG_quintile":"2"},"geometry":{"type":"Point","coordinates":[-80.734521,36.395861]}},{"type":"Feature","properties":{"county":"Surry","county_tier":"2","poverty_county":"22.6","median_inc_county":"46342","code":"860312","name":"Dobson Elementary","city":"Dobson","full_address":"400 W Atkins Street, Dobson, NC 27017","long":"-80.726201","lat":"36.394853","district":"Surry County Schools","percent_EDS":"64.6","SPgrade":"B","EOG_18_19":"70","EOG_quintile":"2"},"geometry":{"type":"Point","coordinates":[-80.726201,36.394853]}},{"type":"Feature","properties":{"county":"Warren","county_tier":"1","poverty_county":"29.7","median_inc_county":"38430","code":"930330","name":"Mariam Boyd Elementary","city":"Warrenton","full_address":"203 Cousin Lucy's Lane, Warrenton, NC 27589","long":"-78.159099","lat":"36.3943723","district":"Warren County Schools","percent_EDS":"65.4","SPgrade":"C","EOG_18_19":"47","EOG_quintile":"3"},"geometry":{"type":"Point","coordinates":[-78.159099,36.394372]}},{"type":"Feature","properties":{"county":"Surry","county_tier":"2","poverty_county":"22.6","median_inc_county":"46342","code":"860316","name":"East Surry High","city":"Pilot Mountain","full_address":"801 W Main Street, Pilot Mountain, NC 27041","long":"-80.477023","lat":"36.392761","district":"Surry County Schools","percent_EDS":"42.6","SPgrade":"B","EOG_18_19":"62.9","EOG_quintile":"2"},"geometry":{"type":"Point","coordinates":[-80.477023,36.392761]}},{"type":"Feature","properties":{"county":"Person","county_tier":"2","poverty_county":"22.6","median_inc_county":"50149","code":"73B000","name":"Roxboro Community School","city":"Roxboro","full_address":"115 Lake Drive, Roxboro, NC 27573","long":"-78.9793387","lat":"36.3925459","district":"Charter Schools","percent_EDS":"7.4","SPgrade":"B","EOG_18_19":"82.8","EOG_quintile":"1"},"geometry":{"type":"Point","coordinates":[-78.979339,36.392546]}},{"type":"Feature","properties":{"county":"Ashe","county_tier":"2","poverty_county":"23.3","median_inc_county":"41864","code":"50302","name":"Ashe County High","city":"West Jefferson","full_address":"184 Campus Drive, West Jefferson, NC 28694","long":"-81.478117","lat":"36.392264","district":"Ashe County Schools","percent_EDS":"51.5","SPgrade":"C","EOG_18_19":"51.4","EOG_quintile":"3"},"geometry":{"type":"Point","coordinates":[-81.478117,36.392264]}},{"type":"Feature","properties":{"county":"Surry","county_tier":"2","poverty_county":"22.6","median_inc_county":"46342","code":"860339","name":"Pilot Mountain Elementary","city":"Pilot Mountain","full_address":"218 Friends St., Pilot Mountain, NC 27041","long":"-80.4700226","lat":"36.3902983","district":"Surry County Schools","percent_EDS":"52.5","SPgrade":"C","EOG_18_19":"65.2","EOG_quintile":"2"},"geometry":{"type":"Point","coordinates":[-80.470023,36.390298]}},{"type":"Feature","properties":{"county":"Currituck","county_tier":"3","poverty_county":"12.4","median_inc_county":"64426","code":"270304","name":"Central Elementary","city":"Barco","full_address":"504 Shortcut Road, Barco, NC 27917","long":"-76.0091482","lat":"36.3895735","district":"Currituck County Schools","percent_EDS":"45.4","SPgrade":"C","EOG_18_19":"59.7","EOG_quintile":"3"},"geometry":{"type":"Point","coordinates":[-76.009148,36.389573]}},{"type":"Feature","properties":{"county":"Halifax","county_tier":"1","poverty_county":"31.3","median_inc_county":"36760","code":"420346","name":"Northwest Halifax Collegiate and Technic","city":"Littleton","full_address":"8492 Hwy 48, Littleton, NC 27850","long":"-77.7858296","lat":"36.3866622","district":"Halifax County Schools","percent_EDS":"57.4","SPgrade":"C","EOG_18_19":"34.5","EOG_quintile":"4"},"geometry":{"type":"Point","coordinates":[-77.78583,36.386662]}},{"type":"Feature","properties":{"county":"Hertford","county_tier":"1","poverty_county":"30.6","median_inc_county":"38216","code":"460340","name":"CS Brown High","city":"Winton","full_address":"102 CSB Dr, Winton, NC 27986","long":"-76.9390878","lat":"36.3862004","district":"Hertford County Schools","percent_EDS":"37.3","SPgrade":"A","EOG_18_19":"69","EOG_quintile":"2"},"geometry":{"type":"Point","coordinates":[-76.939088,36.3862]}},{"type":"Feature","properties":{"county":"Rockingham","county_tier":"1","poverty_county":"24.2","median_inc_county":"41869","code":"790378","name":"Rockingham County High","city":"Reidsville","full_address":"180 High School Rd, Reidsville, NC 27320","long":"-79.7408638","lat":"36.386187","district":"Rockingham County Schools","percent_EDS":"32.1","SPgrade":"B","EOG_18_19":"61.9","EOG_quintile":"2"},"geometry":{"type":"Point","coordinates":[-79.740864,36.386187]}},{"type":"Feature","properties":{"county":"Rockingham","county_tier":"1","poverty_county":"24.2","median_inc_county":"41869","code":"790380","name":"Rockingham County Middle","city":"Reidsville","full_address":"182 High School Road, Reidsville, NC 27320","long":"-79.735185","lat":"36.385928","district":"Rockingham County Schools","percent_EDS":"43.2","SPgrade":"C","EOG_18_19":"66.2","EOG_quintile":"2"},"geometry":{"type":"Point","coordinates":[-79.735185,36.385928]}},{"type":"Feature","properties":{"county":"Surry","county_tier":"2","poverty_county":"22.6","median_inc_county":"46342","code":"860354","name":"Surry Early College","city":"Dobson","full_address":"630 South Main Street, Dobson, NC 27017","long":"-80.7161576","lat":"36.385371","district":"Surry County Schools","percent_EDS":"60.7","SPgrade":"A","EOG_18_19":"88.7","EOG_quintile":"1"},"geometry":{"type":"Point","coordinates":[-80.716158,36.385371]}},{"type":"Feature","properties":{"county":"Rockingham","county_tier":"1","poverty_county":"24.2","median_inc_county":"41869","code":"790350","name":"Monroeton Elementary","city":"Reidsville","full_address":"8081 US Highway 158, Reidsville, NC 27320","long":"-79.1235438","lat":"36.3851315","district":"Rockingham County Schools","percent_EDS":"60.2","SPgrade":"C","EOG_18_19":"53.1","EOG_quintile":"3"},"geometry":{"type":"Point","coordinates":[-79.123544,36.385131]}},{"type":"Feature","properties":{"county":"Guilford","county_tier":"2","poverty_county":"22.1","median_inc_county":"52166","code":"410571","name":"Stokesdale Elementary","city":"Stokesdale","full_address":"8025 US Highway 158, Stokesdale, NC 27357","long":"-79.1225017","lat":"36.3850658","district":"Guilford County Schools","percent_EDS":"20.1","SPgrade":"B","EOG_18_19":"76.1","EOG_quintile":"2"},"geometry":{"type":"Point","coordinates":[-79.122502,36.385066]}},{"type":"Feature","properties":{"county":"Surry","county_tier":"2","poverty_county":"22.6","median_inc_county":"46342","code":"860352","name":"Surry Central High","city":"Dobson","full_address":"716 South Main Street, Dobson, NC 27017","long":"-80.7148274","lat":"36.3817857","district":"Surry County Schools","percent_EDS":"60","SPgrade":"C","EOG_18_19":"53.3","EOG_quintile":"3"},"geometry":{"type":"Point","coordinates":[-80.714827,36.381786]}},{"type":"Feature","properties":{"county":"Person","county_tier":"2","poverty_county":"22.6","median_inc_county":"50149","code":"730360","name":"Southern Middle","city":"Roxboro","full_address":"209 Southern Middle Sch Rd, Roxboro, NC 27573","long":"-78.9917527","lat":"36.3785183","district":"Person County Schools","percent_EDS":"54.4","SPgrade":"C","EOG_18_19":"58.2","EOG_quintile":"3"},"geometry":{"type":"Point","coordinates":[-78.991753,36.378518]}},{"type":"Feature","properties":{"county":"Currituck","county_tier":"3","poverty_county":"12.4","median_inc_county":"64426","code":"27A000","name":"Water's Edge Village School","city":"Corolla","full_address":"1126 Schoolhouse Lane, Corolla, NC 27927","long":"-75.832048","lat":"36.3782629","district":"Charter Schools","percent_EDS":"<5","SPgrade":"B","EOG_18_19":"81.5","EOG_quintile":"1"},"geometry":{"type":"Point","coordinates":[-75.832048,36.378263]}},{"type":"Feature","properties":{"county":"Currituck","county_tier":"3","poverty_county":"12.4","median_inc_county":"64426","code":"270308","name":"Currituck County Middle","city":"Barco","full_address":"4263 Caratoke Hwy, Barco, NC 27917","long":"-75.959602","lat":"36.378103","district":"Currituck County Schools","percent_EDS":"36.3","SPgrade":"C","EOG_18_19":"51","EOG_quintile":"3"},"geometry":{"type":"Point","coordinates":[-75.959602,36.378103]}},{"type":"Feature","properties":{"county":"Ashe","county_tier":"2","poverty_county":"23.3","median_inc_county":"41864","code":"50335","name":"Westwood Elementary","city":"West Jefferson","full_address":"4083 US Hwy 221S, West Jefferson, NC 28694","long":"-81.4894697","lat":"36.3767529","district":"Ashe County Schools","percent_EDS":"60.5","SPgrade":"B","EOG_18_19":"68.2","EOG_quintile":"2"},"geometry":{"type":"Point","coordinates":[-81.48947,36.376753]}},{"type":"Feature","properties":{"county":"Stokes","county_tier":"2","poverty_county":"16.6","median_inc_county":"50826","code":"850360","name":"Stokes Early College","city":"Walnut Cove","full_address":"1165 Dodgetown Rd, Walnut Cove, NC 27052","long":"-80.1833158","lat":"36.3763219","district":"Stokes County Schools","percent_EDS":"34.1","SPgrade":"A","EOG_18_19":"79.8","EOG_quintile":"2"},"geometry":{"type":"Point","coordinates":[-80.183316,36.376322]}},{"type":"Feature","properties":{"county":"Person","county_tier":"2","poverty_county":"22.6","median_inc_county":"50149","code":"730356","name":"South Elementary","city":"Roxboro","full_address":"1333 Hurdle Mills Rd, Roxboro, NC 27573","long":"-78.9887612","lat":"36.375394","district":"Person County Schools","percent_EDS":"62.9","SPgrade":"D","EOG_18_19":"37.6","EOG_quintile":"4"},"geometry":{"type":"Point","coordinates":[-78.988761,36.375394]}},{"type":"Feature","properties":{"county":"Surry","county_tier":"2","poverty_county":"22.6","median_inc_county":"46342","code":"860332","name":"Mountain Park Elementary","city":"State Road","full_address":"505 Mountain Park Rd, State Road, NC 28676","long":"-80.851987","lat":"36.373437","district":"Surry County Schools","percent_EDS":"74.7","SPgrade":"B","EOG_18_19":"67.8","EOG_quintile":"2"},"geometry":{"type":"Point","coordinates":[-80.851987,36.373437]}},{"type":"Feature","properties":{"county":"Currituck","county_tier":"3","poverty_county":"12.4","median_inc_county":"64426","code":"270306","name":"Currituck County High","city":"Barco","full_address":"4203 Caratoke Hwy, Barco, NC 27917","long":"-75.9679957","lat":"36.372479","district":"Currituck County Schools","percent_EDS":"24.3","SPgrade":"C","EOG_18_19":"52.1","EOG_quintile":"3"},"geometry":{"type":"Point","coordinates":[-75.967996,36.372479]}},{"type":"Feature","properties":{"county":"Surry","county_tier":"2","poverty_county":"22.6","median_inc_county":"46342","code":"860344","name":"Rockford Elementary","city":"Dobson","full_address":"719 Rockford Rd, Dobson, NC 27017","long":"-80.694087","lat":"36.370937","district":"Surry County Schools","percent_EDS":"72.2","SPgrade":"C","EOG_18_19":"63.2","EOG_quintile":"2"},"geometry":{"type":"Point","coordinates":[-80.694087,36.370937]}},{"type":"Feature","properties":{"county":"Vance","county_tier":"1","poverty_county":"32.9","median_inc_county":"40263","code":"910308","name":"Carver Elementary","city":"Henderson","full_address":"987 Carver Sch Rd, Henderson, NC 27537","long":"-78.3233215","lat":"36.3684421","district":"Vance County Schools","percent_EDS":"67.6","SPgrade":"C","EOG_18_19":"51.6","EOG_quintile":"3"},"geometry":{"type":"Point","coordinates":[-78.323322,36.368442]}},{"type":"Feature","properties":{"county":"Halifax","county_tier":"1","poverty_county":"31.3","median_inc_county":"36760","code":"422318","name":"Weldon Middle","city":"Halifax","full_address":"4489 Highway 301, Halifax, NC 27839","long":"-77.5894446","lat":"36.3683802","district":"Weldon City Schools","percent_EDS":"70.9","SPgrade":"D","EOG_18_19":"34.9","EOG_quintile":"4"},"geometry":{"type":"Point","coordinates":[-77.589445,36.36838]}},{"type":"Feature","properties":{"county":"Pasquotank","county_tier":"1","poverty_county":"28.9","median_inc_county":"46355","code":"700308","name":"Elizabeth City Middle","city":"Elizabeth City","full_address":"1066 Northside Road, Elizabeth City, NC 27909","long":"-76.2710426","lat":"36.3679416","district":"Pasquotank County Schools","percent_EDS":"67","SPgrade":"D","EOG_18_19":"41.2","EOG_quintile":"3"},"geometry":{"type":"Point","coordinates":[-76.271043,36.367942]}},{"type":"Feature","properties":{"county":"Halifax","county_tier":"1","poverty_county":"31.3","median_inc_county":"36760","code":"42A000","name":"KIPP Halifax College Prep","city":"Halifax","full_address":"9986 Hwy 903, Halifax, NC 27839","long":"-77.6812959","lat":"36.3675464","district":"Charter Schools","percent_EDS":"61.2","SPgrade":"D","EOG_18_19":"44.4","EOG_quintile":"3"},"geometry":{"type":"Point","coordinates":[-77.681296,36.367546]}},{"type":"Feature","properties":{"county":"Rockingham","county_tier":"1","poverty_county":"24.2","median_inc_county":"41869","code":"790358","name":"Moss Street Partnership School","city":"Reidsville","full_address":"419 Moss St, Reidsville, NC 27320","long":"-79.6794154","lat":"36.3655388","district":"Lab Schools","percent_EDS":"63.4","SPgrade":"F","EOG_18_19":"14.6","EOG_quintile":"5"},"geometry":{"type":"Point","coordinates":[-79.679415,36.365539]}},{"type":"Feature","properties":{"county":"Pasquotank","county_tier":"1","poverty_county":"28.9","median_inc_county":"46355","code":"700319","name":"Pasquotank County High","city":"Elizabeth City","full_address":"1064 Northside Road, Elizabeth City, NC 27909","long":"-76.2735096","lat":"36.3654528","district":"Pasquotank County Schools","percent_EDS":"57.1","SPgrade":"D","EOG_18_19":"30.3","EOG_quintile":"4"},"geometry":{"type":"Point","coordinates":[-76.27351,36.365453]}},{"type":"Feature","properties":{"county":"Halifax","county_tier":"1","poverty_county":"31.3","median_inc_county":"36760","code":"420304","name":"Aurelian Springs Institute of Global Lea","city":"Littleton","full_address":"10536 Hwy 48, Littleton, NC 27850","long":"-77.8081687","lat":"36.3638809","district":"Halifax County Schools","percent_EDS":"69.5","SPgrade":"C","EOG_18_19":"47.5","EOG_quintile":"3"},"geometry":{"type":"Point","coordinates":[-77.808169,36.363881]}},{"type":"Feature","properties":{"county":"Camden","county_tier":"2","poverty_county":"9","median_inc_county":"65955","code":"150312","name":"Camden Middle","city":"Camden","full_address":"248 Scotland Road, Camden, NC 27921","long":"-76.174118","lat":"36.361001","district":"Camden County Schools","percent_EDS":"25.4","SPgrade":"B","EOG_18_19":"65.1","EOG_quintile":"2"},"geometry":{"type":"Point","coordinates":[-76.174118,36.361001]}},{"type":"Feature","properties":{"county":"Pasquotank","county_tier":"1","poverty_county":"28.9","median_inc_county":"46355","code":"700314","name":"Northside Elementary","city":"Elizabeth City","full_address":"1062 Northside Rd, Elizabeth City, NC 27909","long":"-76.2719254","lat":"36.3566455","district":"Pasquotank County Schools","percent_EDS":"53.9","SPgrade":"C","EOG_18_19":"61.4","EOG_quintile":"2"},"geometry":{"type":"Point","coordinates":[-76.271925,36.356645]}},{"type":"Feature","properties":{"county":"Vance","county_tier":"1","poverty_county":"32.9","median_inc_county":"40263","code":"910370","name":"Vance County High School","city":"Henderson","full_address":"293 Warrenton Road, Henderson, NC 27537","long":"-78.3742753","lat":"36.3506061","district":"Vance County Schools","percent_EDS":"57.7","SPgrade":"D","EOG_18_19":"23.6","EOG_quintile":"4"},"geometry":{"type":"Point","coordinates":[-78.374275,36.350606]}},{"type":"Feature","properties":{"county":"Wilkes","county_tier":"1","poverty_county":"26.5","median_inc_county":"44080","code":"970376","name":"Traphill Elementary School","city":"Traphill","full_address":"9794 Traphill Rd, Traphill, NC 28685","long":"-81.028789","lat":"36.34727","district":"Wilkes County Schools","percent_EDS":"52.2","SPgrade":"C","EOG_18_19":"61.2","EOG_quintile":"2"},"geometry":{"type":"Point","coordinates":[-81.028789,36.34727]}},{"type":"Feature","properties":{"county":"Caswell","county_tier":"1","poverty_county":"26.5","median_inc_county":"45517","code":"170344","name":"Stoney Creek Elementary","city":"Reidsville","full_address":"1803 Stoney Creek School Road, Reidsville, NC 27320","long":"-79.423574","lat":"36.345013","district":"Caswell County Schools","percent_EDS":"48.2","SPgrade":"D","EOG_18_19":"41.3","EOG_quintile":"3"},"geometry":{"type":"Point","coordinates":[-79.423574,36.345013]}},{"type":"Feature","properties":{"county":"Rockingham","county_tier":"1","poverty_county":"24.2","median_inc_county":"41869","code":"790386","name":"South End Elementary","city":"Reidsville","full_address":"1307 South Park Drive, Reidsville, NC 27320","long":"-79.667871","lat":"36.343707","district":"Rockingham County Schools","percent_EDS":"55.1","SPgrade":"D","EOG_18_19":"43.8","EOG_quintile":"3"},"geometry":{"type":"Point","coordinates":[-79.667871,36.343707]}},{"type":"Feature","properties":{"county":"Granville","county_tier":"2","poverty_county":"18.4","median_inc_county":"58956","code":"390334","name":"Northern Granville Middle","city":"Oxford","full_address":"3144 Webb School Rd, Oxford, NC 27565","long":"-78.6052655","lat":"36.3435764","district":"Granville County Schools","percent_EDS":"76.8","SPgrade":"F","EOG_18_19":"31.6","EOG_quintile":"4"},"geometry":{"type":"Point","coordinates":[-78.605266,36.343576]}},{"type":"Feature","properties":{"county":"Vance","county_tier":"1","poverty_county":"32.9","median_inc_county":"40263","code":"91A000","name":"Vance Charter School","city":"Henderson","full_address":"2090 Ross Mill Road, Henderson, NC 27536","long":"-78.4314738","lat":"36.341668","district":"Charter Schools","percent_EDS":"13.6","SPgrade":"B","EOG_18_19":"73.1","EOG_quintile":"2"},"geometry":{"type":"Point","coordinates":[-78.431474,36.341668]}},{"type":"Feature","properties":{"county":"Granville","county_tier":"2","poverty_county":"18.4","median_inc_county":"58956","code":"390324","name":"J. F. Webb High","city":"Oxford","full_address":"3200 Webb School Rd, Oxford, NC 27565","long":"-78.5980053","lat":"36.3374749","district":"Granville County Schools","percent_EDS":"71.1","SPgrade":"C","EOG_18_19":"27.3","EOG_quintile":"4"},"geometry":{"type":"Point","coordinates":[-78.598005,36.337475]}},{"type":"Feature","properties":{"county":"Granville","county_tier":"2","poverty_county":"18.4","median_inc_county":"58956","code":"390700","name":"JF Webb HS Of Health And Life Sciences","city":"Oxford","full_address":"3200 Webb School Rd, Oxford, NC 27565","long":"-78.5980053","lat":"36.3374749","district":"Granville County Schools","percent_EDS":"42.8","SPgrade":"C","EOG_18_19":"40","EOG_quintile":"3"},"geometry":{"type":"Point","coordinates":[-78.598005,36.337475]}},{"type":"Feature","properties":{"county":"Vance","county_tier":"1","poverty_county":"32.9","median_inc_county":"40263","code":"910316","name":"Vance County Middle School","city":"Henderson","full_address":"500 N Beckford Drive, Henderson, NC 27536","long":"-78.403126","lat":"36.3373595","district":"Vance County Schools","percent_EDS":"71.7","SPgrade":"F","EOG_18_19":"31.5","EOG_quintile":"4"},"geometry":{"type":"Point","coordinates":[-78.403126,36.337359]}},{"type":"Feature","properties":{"county":"Surry","county_tier":"2","poverty_county":"22.6","median_inc_county":"46342","code":"860308","name":"Copeland Elementary","city":"Dobson","full_address":"948 Copeland School Road, Dobson, NC 27017","long":"-80.65087","lat":"36.337156","district":"Surry County Schools","percent_EDS":"73.5","SPgrade":"B","EOG_18_19":"68.5","EOG_quintile":"2"},"geometry":{"type":"Point","coordinates":[-80.65087,36.337156]}},{"type":"Feature","properties":{"county":"Granville","county_tier":"2","poverty_county":"18.4","median_inc_county":"58956","code":"39B000","name":"Oxford Preparatory","city":"Oxford","full_address":"6041 Landis Rd, Oxford, NC 27565","long":"-78.5577229","lat":"36.3361813","district":"Charter Schools","percent_EDS":"9","SPgrade":"C","EOG_18_19":"64.2","EOG_quintile":"2"},"geometry":{"type":"Point","coordinates":[-78.557723,36.336181]}},{"type":"Feature","properties":{"county":"Surry","county_tier":"2","poverty_county":"22.6","median_inc_county":"46342","code":"860348","name":"Shoals Elementary","city":"Pinnacle","full_address":"1800 Shoals Road, Pinnacle, NC 27043","long":"-80.503686","lat":"36.333182","district":"Surry County Schools","percent_EDS":"45.1","SPgrade":"B","EOG_18_19":"82","EOG_quintile":"1"},"geometry":{"type":"Point","coordinates":[-80.503686,36.333182]}},{"type":"Feature","properties":{"county":"Camden","county_tier":"2","poverty_county":"9","median_inc_county":"65955","code":"150308","name":"Grandy Primary","city":"Camden","full_address":"175 NC Hwy 343 North, Camden, NC 27921","long":"-76.1820435","lat":"36.332283","district":"Camden County Schools","percent_EDS":"23.7","SPgrade":"B","EOG_18_19":"86.5","EOG_quintile":"1"},"geometry":{"type":"Point","coordinates":[-76.182044,36.332283]}},{"type":"Feature","properties":{"county":"Camden","county_tier":"2","poverty_county":"9","median_inc_county":"65955","code":"150310","name":"Camden Intermediate","city":"Camden","full_address":"123 Noblitt Drive, Camden, NC 27921","long":"-76.18297","lat":"36.33174","district":"Camden County Schools","percent_EDS":"21.3","SPgrade":"C","EOG_18_19":"67.5","EOG_quintile":"2"},"geometry":{"type":"Point","coordinates":[-76.18297,36.33174]}},{"type":"Feature","properties":{"county":"Rockingham","county_tier":"1","poverty_county":"24.2","median_inc_county":"41869","code":"790327","name":"Huntsville Elementary","city":"Madison","full_address":"2020 Sardis Church Road, Madison, NC 27025","long":"-79.9498069","lat":"36.331391","district":"Rockingham County Schools","percent_EDS":"65.3","SPgrade":"C","EOG_18_19":"50.4","EOG_quintile":"3"},"geometry":{"type":"Point","coordinates":[-79.949807,36.331391]}},{"type":"Feature","properties":{"county":"Vance","county_tier":"1","poverty_county":"32.9","median_inc_county":"40263","code":"910314","name":"Dabney Elementary","city":"Henderson","full_address":"150 Lanning Road, Henderson, NC 27537","long":"-78.4817415","lat":"36.3309516","district":"Vance County Schools","percent_EDS":"65.9","SPgrade":"C","EOG_18_19":"48.4","EOG_quintile":"3"},"geometry":{"type":"Point","coordinates":[-78.481741,36.330952]}},{"type":"Feature","properties":{"county":"Rockingham","county_tier":"1","poverty_county":"24.2","median_inc_county":"41869","code":"790366","name":"Reidsville High","city":"Reidsville","full_address":"1901 S Park Dr, Reidsville, NC 27320","long":"-79.675195","lat":"36.329975","district":"Rockingham County Schools","percent_EDS":"58.7","SPgrade":"C","EOG_18_19":"42.4","EOG_quintile":"3"},"geometry":{"type":"Point","coordinates":[-79.675195,36.329975]}},{"type":"Feature","properties":{"county":"Stokes","county_tier":"2","poverty_county":"16.6","median_inc_county":"50826","code":"850336","name":"Pine Hall Elementary","city":"Pine Hall","full_address":"1400 Pine Hall Road, Pine Hall, NC 27042","long":"-80.048818","lat":"36.32907","district":"Stokes County Schools","percent_EDS":"55.6","SPgrade":"C","EOG_18_19":"57.8","EOG_quintile":"3"},"geometry":{"type":"Point","coordinates":[-80.048818,36.32907]}},{"type":"Feature","properties":{"county":"Caswell","county_tier":"1","poverty_county":"26.5","median_inc_county":"45517","code":"170342","name":"South Elementary","city":"Mebane","full_address":"8925 NC Hwy 86 S, Mebane, NC 27302","long":"-79.239018","lat":"36.328911","district":"Caswell County Schools","percent_EDS":"50.7","SPgrade":"C","EOG_18_19":"53.7","EOG_quintile":"3"},"geometry":{"type":"Point","coordinates":[-79.239018,36.328911]}},{"type":"Feature","properties":{"county":"Rockingham","county_tier":"1","poverty_county":"24.2","median_inc_county":"41869","code":"790374","name":"Reidsville Middle","city":"Reidsville","full_address":"1903 S Park Dr, Reidsville, NC 27320","long":"-79.6804677","lat":"36.3284462","district":"Rockingham County Schools","percent_EDS":"54.6","SPgrade":"D","EOG_18_19":"44.5","EOG_quintile":"3"},"geometry":{"type":"Point","coordinates":[-79.680468,36.328446]}},{"type":"Feature","properties":{"county":"Camden","county_tier":"2","poverty_county":"9","median_inc_county":"65955","code":"150304","name":"Camden County High","city":"Camden","full_address":"103 US 158 W, Camden, NC 27921","long":"-76.1710635","lat":"36.3283688","district":"Camden County Schools","percent_EDS":"20.9","SPgrade":"B","EOG_18_19":"58","EOG_quintile":"3"},"geometry":{"type":"Point","coordinates":[-76.171064,36.328369]}},{"type":"Feature","properties":{"county":"Camden","county_tier":"2","poverty_county":"9","median_inc_county":"65955","code":"150350","name":"Camden Early College High","city":"Camden","full_address":"103-A US Highway 158 West, Camden, NC 27921","long":"-76.1718451","lat":"36.32806","district":"Camden County Schools","percent_EDS":"15.2","SPgrade":"B","EOG_18_19":"78.8","EOG_quintile":"2"},"geometry":{"type":"Point","coordinates":[-76.171845,36.32806]}},{"type":"Feature","properties":{"county":"Stokes","county_tier":"2","poverty_county":"16.6","median_inc_county":"50826","code":"850340","name":"Pinnacle Elementary","city":"Pinnacle","full_address":"1095 Surry Line Rd, Pinnacle, NC 27043","long":"-80.4366","lat":"36.327782","district":"Stokes County Schools","percent_EDS":"61.3","SPgrade":"B","EOG_18_19":"72.9","EOG_quintile":"2"},"geometry":{"type":"Point","coordinates":[-80.4366,36.327782]}},{"type":"Feature","properties":{"county":"Stokes","county_tier":"2","poverty_county":"16.6","median_inc_county":"50826","code":"850352","name":"South Stokes High","city":"Walnut Cove","full_address":"1100 S Stokes High Drive, Walnut Cove, NC 27052","long":"-80.240401","lat":"36.326134","district":"Stokes County Schools","percent_EDS":"44.1","SPgrade":"B","EOG_18_19":"61.7","EOG_quintile":"2"},"geometry":{"type":"Point","coordinates":[-80.240401,36.326134]}},{"type":"Feature","properties":{"county":"Hertford","county_tier":"1","poverty_county":"30.6","median_inc_county":"38216","code":"460322","name":"Hertford Co Early College","city":"Ahoskie","full_address":"109 Community College Rd, Ahoskie, NC 27910","long":"-77.022818","lat":"36.325417","district":"Hertford County Schools","percent_EDS":"28.8","SPgrade":"B","EOG_18_19":"81.5","EOG_quintile":"1"},"geometry":{"type":"Point","coordinates":[-77.022818,36.325417]}},{"type":"Feature","properties":{"county":"Stokes","county_tier":"2","poverty_county":"16.6","median_inc_county":"50826","code":"850356","name":"Walnut Cove Elementary","city":"Walnut Cove","full_address":"1211 Walnut Cove School Rd, Walnut Cove, NC 27052","long":"-80.1485293","lat":"36.3253716","district":"Stokes County Schools","percent_EDS":"67","SPgrade":"B","EOG_18_19":"68.9","EOG_quintile":"2"},"geometry":{"type":"Point","coordinates":[-80.148529,36.325372]}},{"type":"Feature","properties":{"county":"Pasquotank","county_tier":"1","poverty_county":"28.9","median_inc_county":"46355","code":"700325","name":"Elizabeth City Pasquotank Early College","city":"Elizabeth City","full_address":"1208 N Road St, Elizabeth City, NC 27909","long":"-76.220255","lat":"36.3249633","district":"Pasquotank County Schools","percent_EDS":"52.5","SPgrade":"B","EOG_18_19":"76.1","EOG_quintile":"2"},"geometry":{"type":"Point","coordinates":[-76.220255,36.324963]}},{"type":"Feature","properties":{"county":"Vance","county_tier":"1","poverty_county":"32.9","median_inc_county":"40263","code":"910356","name":"Pinkston Street Elementary","city":"Henderson","full_address":"855 Adams St, Henderson, NC 27536","long":"-78.3866947","lat":"36.324727","district":"Vance County Schools","percent_EDS":"82.5","SPgrade":"C","EOG_18_19":"56.5","EOG_quintile":"3"},"geometry":{"type":"Point","coordinates":[-78.386695,36.324727]}},{"type":"Feature","properties":{"county":"Vance","county_tier":"1","poverty_county":"32.9","median_inc_county":"40263","code":"910382","name":"Vance Co Early College","city":"Henderson","full_address":"200 Community College Rd, Henderson, NC 27537","long":"-78.4877589","lat":"36.3232811","district":"Vance County Schools","percent_EDS":"27.8","SPgrade":"A","EOG_18_19":"86.9","EOG_quintile":"1"},"geometry":{"type":"Point","coordinates":[-78.487759,36.323281]}},{"type":"Feature","properties":{"county":"Granville","county_tier":"2","poverty_county":"18.4","median_inc_county":"58956","code":"390364","name":"West Oxford Elementary","city":"Oxford","full_address":"412 Ivey Day Rd, Oxford, NC 27565","long":"-78.611949","lat":"36.322188","district":"Granville County Schools","percent_EDS":"86.3","SPgrade":"D","EOG_18_19":"32.7","EOG_quintile":"4"},"geometry":{"type":"Point","coordinates":[-78.611949,36.322188]}},{"type":"Feature","properties":{"county":"Watauga","county_tier":"3","poverty_county":"14.2","median_inc_county":"48489","code":"950324","name":"Mabel Elementary","city":"Zionville","full_address":"404 Mabel School Road, Zionville, NC 28698","long":"-81.745322","lat":"36.321716","district":"Watauga County Schools","percent_EDS":"59.6","SPgrade":"C","EOG_18_19":"56.3","EOG_quintile":"3"},"geometry":{"type":"Point","coordinates":[-81.745322,36.321716]}},{"type":"Feature","properties":{"county":"Vance","county_tier":"1","poverty_county":"32.9","median_inc_county":"40263","code":"910304","name":"Aycock Elementary","city":"Henderson","full_address":"305 Carey Chapel Rd, Henderson, NC 27537","long":"-78.3614166","lat":"36.3208051","district":"Vance County Schools","percent_EDS":"58.4","SPgrade":"C","EOG_18_19":"57.7","EOG_quintile":"3"},"geometry":{"type":"Point","coordinates":[-78.361417,36.320805]}},{"type":"Feature","properties":{"county":"Stokes","county_tier":"2","poverty_county":"16.6","median_inc_county":"50826","code":"850304","name":"Chestnut Grove Middle","city":"King","full_address":"2185 Chestnut Grove Road, King, NC 27021","long":"-80.3749992","lat":"36.3201653","district":"Stokes County Schools","percent_EDS":"44.9","SPgrade":"C","EOG_18_19":"57.4","EOG_quintile":"3"},"geometry":{"type":"Point","coordinates":[-80.374999,36.320165]}},{"type":"Feature","properties":{"county":"Vance","county_tier":"1","poverty_county":"32.9","median_inc_county":"40263","code":"910360","name":"E M Rollins Elementary","city":"Henderson","full_address":"1600 S Garnett St, Henderson, NC 27536","long":"-78.4156681","lat":"36.3200192","district":"Vance County Schools","percent_EDS":"76.5","SPgrade":"D","EOG_18_19":"35.4","EOG_quintile":"4"},"geometry":{"type":"Point","coordinates":[-78.415668,36.320019]}},{"type":"Feature","properties":{"county":"Warren","county_tier":"1","poverty_county":"29.7","median_inc_county":"38430","code":"930344","name":"South Warren Elementary","city":"Warrenton","full_address":"216 Shocco Springs Rd, Warrenton, NC 27589","long":"-78.1993562","lat":"36.3198011","district":"Warren County Schools","percent_EDS":"65.6","SPgrade":"C","EOG_18_19":"52.7","EOG_quintile":"3"},"geometry":{"type":"Point","coordinates":[-78.199356,36.319801]}},{"type":"Feature","properties":{"county":"Stokes","county_tier":"2","poverty_county":"16.6","median_inc_county":"50826","code":"850314","name":"Mount Olive Elementary","city":"King","full_address":"2145 Chestnut Grove Road, King, NC 27021","long":"-80.3732606","lat":"36.3194642","district":"Stokes County Schools","percent_EDS":"41.6","SPgrade":"B","EOG_18_19":"68.2","EOG_quintile":"2"},"geometry":{"type":"Point","coordinates":[-80.373261,36.319464]}},{"type":"Feature","properties":{"county":"Granville","county_tier":"2","poverty_county":"18.4","median_inc_county":"58956","code":"390331","name":"Mary Potter Middle","city":"Oxford","full_address":"200 Taylor St, Oxford, NC 27565","long":"-78.5862227","lat":"36.3165557","district":"Granville County Schools","percent_EDS":"76","SPgrade":"D","EOG_18_19":"42.3","EOG_quintile":"3"},"geometry":{"type":"Point","coordinates":[-78.586223,36.316556]}},{"type":"Feature","properties":{"county":"Wilkes","county_tier":"1","poverty_county":"26.5","median_inc_county":"44080","code":"97D000","name":"Bridges Academy","city":"State Road","full_address":"2587 Pleasant Ridge Road, State Road, NC 28676","long":"-80.884614","lat":"36.314907","district":"Charter Schools","percent_EDS":"41.6","SPgrade":"D","EOG_18_19":"36.3","EOG_quintile":"4"},"geometry":{"type":"Point","coordinates":[-80.884614,36.314907]}},{"type":"Feature","properties":{"county":"Granville","county_tier":"2","poverty_county":"18.4","median_inc_county":"58956","code":"390312","name":"C. G. Credle Elementary","city":"Oxford","full_address":"223 College St, Oxford, NC 27565","long":"-78.592472","lat":"36.31453","district":"Granville County Schools","percent_EDS":"78.6","SPgrade":"D","EOG_18_19":"45.8","EOG_quintile":"3"},"geometry":{"type":"Point","coordinates":[-78.592472,36.31453]}},{"type":"Feature","properties":{"county":"Stokes","county_tier":"2","poverty_county":"16.6","median_inc_county":"50826","code":"850358","name":"West Stokes High","city":"King","full_address":"1400 Priddy Road, King, NC 27021","long":"-80.3758359","lat":"36.3140098","district":"Stokes County Schools","percent_EDS":"38","SPgrade":"B","EOG_18_19":"64.3","EOG_quintile":"2"},"geometry":{"type":"Point","coordinates":[-80.375836,36.31401]}},{"type":"Feature","properties":{"county":"Rockingham","county_tier":"1","poverty_county":"24.2","median_inc_county":"41869","code":"790302","name":"Bethany Elementary","city":"Reidsville","full_address":"271 Bethany Rd, Reidsville, NC 27320","long":"-79.8596955","lat":"36.3130465","district":"Rockingham County Schools","percent_EDS":"36","SPgrade":"B","EOG_18_19":"75.6","EOG_quintile":"2"},"geometry":{"type":"Point","coordinates":[-79.859696,36.313046]}},{"type":"Feature","properties":{"county":"Stokes","county_tier":"2","poverty_county":"16.6","median_inc_county":"50826","code":"850350","name":"Southeastern Middle","city":"Walnut Cove","full_address":"1044 N Main Street, Walnut Cove, NC 27052","long":"-80.138461","lat":"36.309152","district":"Stokes County Schools","percent_EDS":"55.4","SPgrade":"C","EOG_18_19":"51.8","EOG_quintile":"3"},"geometry":{"type":"Point","coordinates":[-80.138461,36.309152]}},{"type":"Feature","properties":{"county":"Vance","county_tier":"1","poverty_county":"32.9","median_inc_county":"40263","code":"91B000","name":"Henderson Collegiate","city":"Henderson","full_address":"1071 Old Epsom Rd, Henderson, NC 27536","long":"-78.3974956","lat":"36.3080731","district":"Charter Schools","percent_EDS":"37","SPgrade":"B","EOG_18_19":"79.4","EOG_quintile":"2"},"geometry":{"type":"Point","coordinates":[-78.397496,36.308073]}},{"type":"Feature","properties":{"county":"Vance","county_tier":"1","poverty_county":"32.9","median_inc_county":"40263","code":"910376","name":"L B Yancey Elementary","city":"Henderson","full_address":"311 Hawkins Drive, Henderson, NC 27536","long":"-78.4023796","lat":"36.3065981","district":"Vance County Schools","percent_EDS":"73.1","SPgrade":"C","EOG_18_19":"59.1","EOG_quintile":"3"},"geometry":{"type":"Point","coordinates":[-78.40238,36.306598]}},{"type":"Feature","properties":{"county":"Vance","county_tier":"1","poverty_county":"32.9","median_inc_county":"40263","code":"910384","name":"STEM Early High","city":"Henderson","full_address":"925 Garrett Road, Henderson, NC 27537","long":"-78.3735567","lat":"36.3043127","district":"Vance County Schools","percent_EDS":"45.5","SPgrade":"A","EOG_18_19":"82.6","EOG_quintile":"1"},"geometry":{"type":"Point","coordinates":[-78.373557,36.304313]}},{"type":"Feature","properties":{"county":"Pasquotank","county_tier":"1","poverty_county":"28.9","median_inc_county":"46355","code":"700324","name":"Sheep-Harney Elementary","city":"Elizabeth City","full_address":"200 W Elizabeth St, Elizabeth City, NC 27909","long":"-76.2245097","lat":"36.3030839","district":"Pasquotank County Schools","percent_EDS":"52.3","SPgrade":"C","EOG_18_19":"56","EOG_quintile":"3"},"geometry":{"type":"Point","coordinates":[-76.22451,36.303084]}},{"type":"Feature","properties":{"county":"Stokes","county_tier":"2","poverty_county":"16.6","median_inc_county":"50826","code":"850354","name":"London Elementary","city":"Walnut Cove","full_address":"609 School Street, Walnut Cove, NC 27052","long":"-80.1463201","lat":"36.2997807","district":"Stokes County Schools","percent_EDS":"65.4","SPgrade":"B","EOG_18_19":"63.3","EOG_quintile":"2"},"geometry":{"type":"Point","coordinates":[-80.14632,36.299781]}},{"type":"Feature","properties":{"county":"Vance","county_tier":"1","poverty_county":"32.9","median_inc_county":"40263","code":"910311","name":"Clarke Elementary","city":"Henderson","full_address":"309 Mount Carmel Church Road, Henderson, NC 27537","long":"-78.3687998","lat":"36.2991703","district":"Vance County Schools","percent_EDS":"72.7","SPgrade":"C","EOG_18_19":"51.6","EOG_quintile":"3"},"geometry":{"type":"Point","coordinates":[-78.3688,36.29917]}},{"type":"Feature","properties":{"county":"Stokes","county_tier":"2","poverty_county":"16.6","median_inc_county":"50826","code":"850312","name":"Germanton Elementary","city":"Germanton","full_address":"6085 NC 8 Hwy South, Germanton, NC 27019","long":"-80.2343319","lat":"36.2974712","district":"Stokes County Schools","percent_EDS":"53.2","SPgrade":"D","EOG_18_19":"44.8","EOG_quintile":"3"},"geometry":{"type":"Point","coordinates":[-80.234332,36.297471]}},{"type":"Feature","properties":{"county":"Hertford","county_tier":"1","poverty_county":"30.6","median_inc_county":"38216","code":"460320","name":"Hertford County High","city":"Ahoskie","full_address":"1500 W First St, Ahoskie, NC 27910","long":"-76.997607","lat":"36.2962907","district":"Hertford County Schools","percent_EDS":"55.2","SPgrade":"D","EOG_18_19":"24.5","EOG_quintile":"4"},"geometry":{"type":"Point","coordinates":[-76.997607,36.296291]}},{"type":"Feature","properties":{"county":"Hertford","county_tier":"1","poverty_county":"30.6","median_inc_county":"38216","code":"460312","name":"Bearfield Primary","city":"Ahoskie","full_address":"145 Hertford Co High School Rd, Ahoskie, NC 27910","long":"-76.993872","lat":"36.295519","district":"Hertford County Schools","percent_EDS":"64.6","SPgrade":"C","EOG_18_19":"65.5","EOG_quintile":"2"},"geometry":{"type":"Point","coordinates":[-76.993872,36.295519]}},{"type":"Feature","properties":{"county":"Watauga","county_tier":"3","poverty_county":"14.2","median_inc_county":"48489","code":"950308","name":"Bethel Elementary","city":"Sugar Grove","full_address":"138 Bethel School Rd, Sugar Grove, NC 28679","long":"-81.848156","lat":"36.29486","district":"Watauga County Schools","percent_EDS":"54.2","SPgrade":"C","EOG_18_19":"59.3","EOG_quintile":"3"},"geometry":{"type":"Point","coordinates":[-81.848156,36.29486]}},{"type":"Feature","properties":{"county":"Stokes","county_tier":"2","poverty_county":"16.6","median_inc_county":"50826","code":"850342","name":"Poplar Springs Elementary","city":"King","full_address":"223 Hobe Kiser Road, King, NC 27021","long":"-80.3287522","lat":"36.2948165","district":"Stokes County Schools","percent_EDS":"51.1","SPgrade":"B","EOG_18_19":"62.4","EOG_quintile":"2"},"geometry":{"type":"Point","coordinates":[-80.328752,36.294817]}},{"type":"Feature","properties":{"county":"Hertford","county_tier":"1","poverty_county":"30.6","median_inc_county":"38216","code":"460308","name":"Ahoskie Elementary","city":"Ahoskie","full_address":"200 N Talmage St, Ahoskie, NC 27910","long":"-76.994518","lat":"36.2916745","district":"Hertford County Schools","percent_EDS":"63.7","SPgrade":"F","EOG_18_19":"34.3","EOG_quintile":"4"},"geometry":{"type":"Point","coordinates":[-76.994518,36.291674]}},{"type":"Feature","properties":{"county":"Rockingham","county_tier":"1","poverty_county":"24.2","median_inc_county":"41869","code":"790402","name":"Williamsburg Elementary","city":"Reidsville","full_address":"2830 Hwy 87, Reidsville, NC 27320","long":"-79.616604","lat":"36.290104","district":"Rockingham County Schools","percent_EDS":"54.6","SPgrade":"C","EOG_18_19":"57.2","EOG_quintile":"3"},"geometry":{"type":"Point","coordinates":[-79.616604,36.290104]}},{"type":"Feature","properties":{"county":"Pasquotank","county_tier":"1","poverty_county":"28.9","median_inc_county":"46355","code":"700320","name":"P W Moore Elementary","city":"Elizabeth City","full_address":"606 Roanoke Ave, Elizabeth City, NC 27909","long":"-76.2286296","lat":"36.2897577","district":"Pasquotank County Schools","percent_EDS":"66.3","SPgrade":"F","EOG_18_19":"30.1","EOG_quintile":"4"},"geometry":{"type":"Point","coordinates":[-76.22863,36.289758]}},{"type":"Feature","properties":{"county":"Pasquotank","county_tier":"1","poverty_county":"28.9","median_inc_county":"46355","code":"700316","name":"J C Sawyer Elementary","city":"Elizabeth City","full_address":"1007 Park St, Elizabeth City, NC 27909","long":"-76.211246","lat":"36.2892197","district":"Pasquotank County Schools","percent_EDS":"54.1","SPgrade":"C","EOG_18_19":"51.1","EOG_quintile":"3"},"geometry":{"type":"Point","coordinates":[-76.211246,36.28922]}},{"type":"Feature","properties":{"county":"Pasquotank","county_tier":"1","poverty_county":"28.9","median_inc_county":"46355","code":"700306","name":"Central Elementary","city":"Elizabeth City","full_address":"1059 US Hwy 17, Elizabeth City, NC 27909","long":"-76.2629148","lat":"36.2885042","district":"Pasquotank County Schools","percent_EDS":"56.2","SPgrade":"C","EOG_18_19":"60.4","EOG_quintile":"2"},"geometry":{"type":"Point","coordinates":[-76.262915,36.288504]}},{"type":"Feature","properties":{"county":"Person","county_tier":"2","poverty_county":"22.6","median_inc_county":"50149","code":"730332","name":"Helena Elementary","city":"Timberlake","full_address":"355 Helena Moriah Rd, Timberlake, NC 27583","long":"-78.9572436","lat":"36.2870987","district":"Person County Schools","percent_EDS":"32.4","SPgrade":"B","EOG_18_19":"64.8","EOG_quintile":"2"},"geometry":{"type":"Point","coordinates":[-78.957244,36.287099]}},{"type":"Feature","properties":{"county":"Pasquotank","county_tier":"1","poverty_county":"28.9","median_inc_county":"46355","code":"700317","name":"Northeastern High","city":"Elizabeth City","full_address":"963 Oak Stump Rd, Elizabeth City, NC 27909","long":"-76.2567873","lat":"36.2860483","district":"Pasquotank County Schools","percent_EDS":"53.9","SPgrade":"C","EOG_18_19":"34","EOG_quintile":"4"},"geometry":{"type":"Point","coordinates":[-76.256787,36.286048]}},{"type":"Feature","properties":{"county":"Pasquotank","county_tier":"1","poverty_county":"28.9","median_inc_county":"46355","code":"700318","name":"Pasquotank Elementary","city":"Elizabeth City","full_address":"1407 Peartree Rd, Elizabeth City, NC 27909","long":"-76.2243629","lat":"36.2835366","district":"Pasquotank County Schools","percent_EDS":"53","SPgrade":"F","EOG_18_19":"25.5","EOG_quintile":"4"},"geometry":{"type":"Point","coordinates":[-76.224363,36.283537]}},{"type":"Feature","properties":{"county":"Wilkes","county_tier":"1","poverty_county":"26.5","median_inc_county":"44080","code":"970356","name":"North Wilkes High School","city":"Hays","full_address":"2986 Traphill Rd, Hays, NC 28635","long":"-81.0983591","lat":"36.2824651","district":"Wilkes County Schools","percent_EDS":"46.6","SPgrade":"B","EOG_18_19":"58.9","EOG_quintile":"3"},"geometry":{"type":"Point","coordinates":[-81.098359,36.282465]}},{"type":"Feature","properties":{"county":"Pasquotank","county_tier":"1","poverty_county":"28.9","median_inc_county":"46355","code":"70A000","name":"Northeast Academy of Aerospace & AdvTech","city":"Elizabeth City","full_address":"ECSU ITC Bldg, 1810 Weeksvile Rd, Elizabeth City, NC 27909","long":"-76.2139598","lat":"36.281065","district":"Charter Schools","percent_EDS":"13.7","SPgrade":"C","EOG_18_19":"62.6","EOG_quintile":"2"},"geometry":{"type":"Point","coordinates":[-76.21396,36.281065]}},{"type":"Feature","properties":{"county":"Currituck","county_tier":"3","poverty_county":"12.4","median_inc_county":"64426","code":"270320","name":"W T Griggs Elementary","city":"Poplar Branch","full_address":"261 Poplar Branch Road, Poplar Branch, NC 27965","long":"-75.8914829","lat":"36.280245","district":"Currituck County Schools","percent_EDS":"47.8","SPgrade":"C","EOG_18_19":"61.4","EOG_quintile":"2"},"geometry":{"type":"Point","coordinates":[-75.891483,36.280245]}},{"type":"Feature","properties":{"county":"Stokes","county_tier":"2","poverty_county":"16.6","median_inc_county":"50826","code":"850316","name":"King Elementary","city":"King","full_address":"152 East School St, King, NC 27021","long":"-80.3539","lat":"36.278681","district":"Stokes County Schools","percent_EDS":"60.7","SPgrade":"C","EOG_18_19":"62","EOG_quintile":"2"},"geometry":{"type":"Point","coordinates":[-80.3539,36.278681]}},{"type":"Feature","properties":{"county":"Watauga","county_tier":"3","poverty_county":"14.2","median_inc_county":"48489","code":"950320","name":"Green Valley Elementary","city":"Boone","full_address":"189 Big Hill Road, Boone, NC 28607","long":"-81.6466332","lat":"36.2774274","district":"Watauga County Schools","percent_EDS":"56.5","SPgrade":"B","EOG_18_19":"62.5","EOG_quintile":"2"},"geometry":{"type":"Point","coordinates":[-81.646633,36.277427]}},{"type":"Feature","properties":{"county":"Wilkes","county_tier":"1","poverty_county":"26.5","median_inc_county":"44080","code":"970310","name":"C B Eller Elementary School","city":"Elkin","full_address":"1288 CB Eller School Rd, Elkin, NC 28621","long":"-80.889261","lat":"36.276196","district":"Wilkes County Schools","percent_EDS":"32.2","SPgrade":"B","EOG_18_19":"75","EOG_quintile":"2"},"geometry":{"type":"Point","coordinates":[-80.889261,36.276196]}},{"type":"Feature","properties":{"county":"Pasquotank","county_tier":"1","poverty_county":"28.9","median_inc_county":"46355","code":"700322","name":"River Road Middle","city":"Elizabeth City","full_address":"1701 River Road, Elizabeth City, NC 27909","long":"-76.1976634","lat":"36.2754945","district":"Pasquotank County Schools","percent_EDS":"67.2","SPgrade":"C","EOG_18_19":"46.6","EOG_quintile":"3"},"geometry":{"type":"Point","coordinates":[-76.197663,36.275495]}},{"type":"Feature","properties":{"county":"Person","county_tier":"2","poverty_county":"22.6","median_inc_county":"50149","code":"730348","name":"Oak Lane Elementary","city":"Hurdle Mills","full_address":"2076 Jim Morton Rd, Hurdle Mills, NC 27541","long":"-79.0968793","lat":"36.2741412","district":"Person County Schools","percent_EDS":"22.8","SPgrade":"C","EOG_18_19":"60.5","EOG_quintile":"2"},"geometry":{"type":"Point","coordinates":[-79.096879,36.274141]}},{"type":"Feature","properties":{"county":"Vance","county_tier":"1","poverty_county":"32.9","median_inc_county":"40263","code":"910380","name":"Zeb Vance Elementary","city":"Kittrell","full_address":"4800 Raleigh Road, Kittrell, NC 27544","long":"-78.4104409","lat":"36.2648518","district":"Vance County Schools","percent_EDS":"57.4","SPgrade":"C","EOG_18_19":"50.9","EOG_quintile":"3"},"geometry":{"type":"Point","coordinates":[-78.410441,36.264852]}},{"type":"Feature","properties":{"county":"Halifax","county_tier":"1","poverty_county":"31.3","median_inc_county":"36760","code":"420348","name":"Pittman Elementary Leadership Academy","city":"Enfield","full_address":"25041 Hwy 561, Enfield, NC 27823","long":"-77.7433597","lat":"36.2641921","district":"Halifax County Schools","percent_EDS":"68.8","SPgrade":"C","EOG_18_19":"53","EOG_quintile":"3"},"geometry":{"type":"Point","coordinates":[-77.74336,36.264192]}},{"type":"Feature","properties":{"county":"Wilkes","county_tier":"1","poverty_county":"26.5","median_inc_county":"44080","code":"970358","name":"North Wilkes Middle School","city":"North Wilkesboro","full_address":"2776 Yellow Banks Road, North Wilkesboro, NC 28659","long":"-81.1498353","lat":"36.2631367","district":"Wilkes County Schools","percent_EDS":"38","SPgrade":"C","EOG_18_19":"50.8","EOG_quintile":"3"},"geometry":{"type":"Point","coordinates":[-81.149835,36.263137]}},{"type":"Feature","properties":{"county":"Rockingham","county_tier":"1","poverty_county":"24.2","median_inc_county":"41869","code":"79A000","name":"Bethany Community School","city":"Summerfield","full_address":"1288 Hudson Rd, Summerfield, NC 27358","long":"-79.8677733","lat":"36.2620483","district":"Charter Schools","percent_EDS":"16.6","SPgrade":"C","EOG_18_19":"61.2","EOG_quintile":"2"},"geometry":{"type":"Point","coordinates":[-79.867773,36.262048]}},{"type":"Feature","properties":{"county":"Halifax","county_tier":"1","poverty_county":"31.3","median_inc_county":"36760","code":"420336","name":"Hollister Elementary Leadership Academy","city":"Hollister","full_address":"37432 Hwy 561, Hollister, NC 27844","long":"-77.9423872","lat":"36.2576084","district":"Halifax County Schools","percent_EDS":"59.4","SPgrade":"C","EOG_18_19":"60.3","EOG_quintile":"2"},"geometry":{"type":"Point","coordinates":[-77.942387,36.257608]}},{"type":"Feature","properties":{"county":"Watauga","county_tier":"3","poverty_county":"14.2","median_inc_county":"48489","code":"950316","name":"Cove Creek Elementary","city":"Vilas","full_address":"930 Vanderpool Rd, Vilas, NC 28692","long":"-81.748295","lat":"36.25701","district":"Watauga County Schools","percent_EDS":"48.6","SPgrade":"B","EOG_18_19":"65.4","EOG_quintile":"2"},"geometry":{"type":"Point","coordinates":[-81.748295,36.25701]}},{"type":"Feature","properties":{"county":"Rockingham","county_tier":"1","poverty_county":"24.2","median_inc_county":"41869","code":"790379","name":"Rockingham Co Early College High","city":"Wentworth","full_address":"NC Hwy 65, Wentworth, NC 27375","long":"-79.960093","lat":"36.2556076","district":"Rockingham County Schools","percent_EDS":"36.9","SPgrade":"A","EOG_18_19":"87.8","EOG_quintile":"1"},"geometry":{"type":"Point","coordinates":[-79.960093,36.255608]}},{"type":"Feature","properties":{"county":"Warren","county_tier":"1","poverty_county":"29.7","median_inc_county":"38430","code":"93A000","name":"Haliwa-Saponi Tribal School","city":"Hollister","full_address":"130 Haliwa-Saponi Trail, Hollister, NC 27844","long":"-77.981472","lat":"36.2520257","district":"Charter Schools","percent_EDS":"65","SPgrade":"D","EOG_18_19":"31","EOG_quintile":"4"},"geometry":{"type":"Point","coordinates":[-77.981472,36.252026]}},{"type":"Feature","properties":{"county":"Wilkes","county_tier":"1","poverty_county":"26.5","median_inc_county":"44080","code":"970348","name":"Mountain View Elementary School","city":"Hays","full_address":"5464 Mountain View Rd, Hays, NC 28635","long":"-81.1160644","lat":"36.2486906","district":"Wilkes County Schools","percent_EDS":"40.7","SPgrade":"C","EOG_18_19":"52.2","EOG_quintile":"3"},"geometry":{"type":"Point","coordinates":[-81.116064,36.248691]}},{"type":"Feature","properties":{"county":"Wilkes","county_tier":"1","poverty_county":"26.5","median_inc_county":"44080","code":"970322","name":"East Wilkes Middle School","city":"Ronda","full_address":"2202 Macedonia Church Road, Ronda, NC 28670","long":"-80.9320924","lat":"36.2470078","district":"Wilkes County Schools","percent_EDS":"30","SPgrade":"B","EOG_18_19":"63.3","EOG_quintile":"2"},"geometry":{"type":"Point","coordinates":[-80.932092,36.247008]}},{"type":"Feature","properties":{"county":"Surry","county_tier":"2","poverty_county":"22.6","median_inc_county":"46342","code":"861304","name":"Elkin Elementary","city":"Elkin","full_address":"135 Old Virginia Rd, Elkin, NC 28621","long":"-80.854315","lat":"36.245685","district":"Elkin City Schools","percent_EDS":"45.3","SPgrade":"B","EOG_18_19":"70.5","EOG_quintile":"2"},"geometry":{"type":"Point","coordinates":[-80.854315,36.245685]}},{"type":"Feature","properties":{"county":"Surry","county_tier":"2","poverty_county":"22.6","median_inc_county":"46342","code":"861308","name":"Elkin High","city":"Elkin","full_address":"334 Elk Spur St, Elkin, NC 28621","long":"-80.860273","lat":"36.245632","district":"Elkin City Schools","percent_EDS":"37.1","SPgrade":"B","EOG_18_19":"73.4","EOG_quintile":"2"},"geometry":{"type":"Point","coordinates":[-80.860273,36.245632]}},{"type":"Feature","properties":{"county":"Surry","county_tier":"2","poverty_county":"22.6","median_inc_county":"46342","code":"861312","name":"Elkin Middle","city":"Elkin","full_address":"300 Elk Spur St, Elkin, NC 28621","long":"-80.859654","lat":"36.244965","district":"Elkin City Schools","percent_EDS":"37","SPgrade":"B","EOG_18_19":"71.8","EOG_quintile":"2"},"geometry":{"type":"Point","coordinates":[-80.859654,36.244965]}},{"type":"Feature","properties":{"county":"Forsyth","county_tier":"2","poverty_county":"23","median_inc_county":"50112","code":"340504","name":"Rural Hall Elementary","city":"Rural Hall","full_address":"275 College Street, Rural Hall, NC 27045","long":"-80.290511","lat":"36.241433","district":"Forsyth County Schools","percent_EDS":"60.6","SPgrade":"C","EOG_18_19":"50.9","EOG_quintile":"3"},"geometry":{"type":"Point","coordinates":[-80.290511,36.241433]}},{"type":"Feature","properties":{"county":"Wilkes","county_tier":"1","poverty_county":"26.5","median_inc_county":"44080","code":"970352","name":"Mulberry Elementary School","city":"North Wilkesboro","full_address":"190 Mulberry School Rd, North Wilkesboro, NC 28659","long":"-81.1789055","lat":"36.2364154","district":"Wilkes County Schools","percent_EDS":"48.2","SPgrade":"B","EOG_18_19":"67","EOG_quintile":"2"},"geometry":{"type":"Point","coordinates":[-81.178905,36.236415]}},{"type":"Feature","properties":{"county":"Chowan","county_tier":"1","poverty_county":"28.2","median_inc_county":"42618","code":"210304","name":"Chowan Middle","city":"Tyner","full_address":"2845 Virginia Road, Tyner, NC 27980","long":"-76.6565","lat":"36.232703","district":"Edenton-Chowan Schools","percent_EDS":"65.9","SPgrade":"C","EOG_18_19":"54.9","EOG_quintile":"3"},"geometry":{"type":"Point","coordinates":[-76.6565,36.232703]}},{"type":"Feature","properties":{"county":"Yadkin","county_tier":"2","poverty_county":"20.2","median_inc_county":"49070","code":"990304","name":"Boonville Elementary","city":"Boonville","full_address":"232 East Main Street, Boonville, NC 27011","long":"-80.7049978","lat":"36.2326853","district":"Yadkin County Schools","percent_EDS":"63.3","SPgrade":"B","EOG_18_19":"65.8","EOG_quintile":"2"},"geometry":{"type":"Point","coordinates":[-80.704998,36.232685]}},{"type":"Feature","properties":{"county":"Yadkin","county_tier":"2","poverty_county":"20.2","median_inc_county":"49070","code":"990324","name":"Jonesville Elementary","city":"Jonesville","full_address":"101 Cedarbrook Rd, Jonesville, NC 28642","long":"-80.8446207","lat":"36.2323906","district":"Yadkin County Schools","percent_EDS":"75.8","SPgrade":"C","EOG_18_19":"55.5","EOG_quintile":"3"},"geometry":{"type":"Point","coordinates":[-80.844621,36.232391]}},{"type":"Feature","properties":{"county":"Watauga","county_tier":"3","poverty_county":"14.2","median_inc_county":"48489","code":"950328","name":"Parkway Elementary","city":"Boone","full_address":"160 Parkway School Dr, Boone, NC 28607","long":"-81.5628133","lat":"36.2317349","district":"Watauga County Schools","percent_EDS":"32.3","SPgrade":"B","EOG_18_19":"75.3","EOG_quintile":"2"},"geometry":{"type":"Point","coordinates":[-81.562813,36.231735]}},{"type":"Feature","properties":{"county":"Yadkin","county_tier":"2","poverty_county":"20.2","median_inc_county":"49070","code":"990316","name":"Fall Creek Elementary","city":"East Bend","full_address":"2720 Smithtown Rd, East Bend, NC 27018","long":"-80.588585","lat":"36.229058","district":"Yadkin County Schools","percent_EDS":"51.8","SPgrade":"B","EOG_18_19":"69","EOG_quintile":"2"},"geometry":{"type":"Point","coordinates":[-80.588585,36.229058]}},{"type":"Feature","properties":{"county":"Guilford","county_tier":"2","poverty_county":"22.1","median_inc_county":"52166","code":"410486","name":"Northern Guilford Elementary","city":"Greensboro","full_address":"3801 NC Highway 150 East, Greensboro, NC 27455","long":"-79.7668868","lat":"36.2285224","district":"Guilford County Schools","percent_EDS":"11.6","SPgrade":"B","EOG_18_19":"84.8","EOG_quintile":"1"},"geometry":{"type":"Point","coordinates":[-79.766887,36.228522]}},{"type":"Feature","properties":{"county":"Watauga","county_tier":"3","poverty_county":"14.2","median_inc_county":"48489","code":"95A000","name":"Two Rivers Community School","city":"Boone","full_address":"1018 Archie Carroll Road, Boone, NC 28607","long":"-81.6148534","lat":"36.2269435","district":"Charter Schools","percent_EDS":"13.3","SPgrade":"B","EOG_18_19":"77.6","EOG_quintile":"2"},"geometry":{"type":"Point","coordinates":[-81.614853,36.226943]}},{"type":"Feature","properties":{"county":"Wilkes","county_tier":"1","poverty_county":"26.5","median_inc_county":"44080","code":"970320","name":"East Wilkes High School","city":"Ronda","full_address":"13315 Elkin Hwy 268, Ronda, NC 28670","long":"-80.9275798","lat":"36.2268971","district":"Wilkes County Schools","percent_EDS":"41.3","SPgrade":"B","EOG_18_19":"53.7","EOG_quintile":"3"},"geometry":{"type":"Point","coordinates":[-80.92758,36.226897]}},{"type":"Feature","properties":{"county":"Watauga","county_tier":"3","poverty_county":"14.2","median_inc_county":"48489","code":"950322","name":"Hardin Park Elementary","city":"Boone","full_address":"361 Jefferson Road, Boone, NC 28607","long":"-81.6612758","lat":"36.2228201","district":"Watauga County Schools","percent_EDS":"36.6","SPgrade":"B","EOG_18_19":"75.4","EOG_quintile":"2"},"geometry":{"type":"Point","coordinates":[-81.661276,36.22282]}},{"type":"Feature","properties":{"county":"Perquimans","county_tier":"1","poverty_county":"26.5","median_inc_county":"48337","code":"720320","name":"Perquimans County Middle","city":"Winfall","full_address":"312 W Main Street, Winfall, NC 27985","long":"-76.4717625","lat":"36.2216001","district":"Perquimans County Schools","percent_EDS":"59.7","SPgrade":"C","EOG_18_19":"53.3","EOG_quintile":"3"},"geometry":{"type":"Point","coordinates":[-76.471762,36.2216]}},{"type":"Feature","properties":{"county":"Guilford","county_tier":"2","poverty_county":"22.1","median_inc_county":"52166","code":"410340","name":"Monticello-Brown Summit Elem","city":"Browns Summit","full_address":"5006 NC Highway 150 East, Browns Summit, NC 27214","long":"-79.6742777","lat":"36.219915","district":"Guilford County Schools","percent_EDS":"65.7","SPgrade":"C","EOG_18_19":"47.8","EOG_quintile":"3"},"geometry":{"type":"Point","coordinates":[-79.674278,36.219915]}},{"type":"Feature","properties":{"county":"Halifax","county_tier":"1","poverty_county":"31.3","median_inc_county":"36760","code":"420358","name":"Southeast Halifax Collegiate Prep Academ","city":"Halifax","full_address":"16683 Hwy 125, Halifax, NC 27839","long":"-77.5507677","lat":"36.2193662","district":"Halifax County Schools","percent_EDS":"64.2","SPgrade":"D","EOG_18_19":"11.2","EOG_quintile":"5"},"geometry":{"type":"Point","coordinates":[-77.550768,36.219366]}},