code,name,county,city,full_address,long,lat,district,name_y,percent_EDS,SPgrade,EOG_18_19,EOG_quintile
740302,A G Cox Middle,Pitt,Winterville,"2657 Church Street, Winterville, NC 28590",-77.400482,35.524348,Pitt County Schools,A G Cox Middle,48.9,C,60.7,2
650384,A H Snipes Academy of Arts/Des,New Hanover,Wilmington,"2150 Chestnut Street, Wilmington, NC 28405",-77.9204058,34.2393823,New Hanover County Schools,A H Snipes Academy of Arts/Des,91.5,D,33.2,4
132304,A L Brown High,Cabarrus,Kannapolis,"415 E 1st Street, Kannapolis, NC 28083",-80.6186581,35.4959688,Kannapolis City Schools,A L Brown High,32.6,C,35.3,4
680304,A L Stanback Middle,Orange,Hillsborough,"3700 NC 86 South, Hillsborough, NC 27278",-79.0791526,36.0265792,Orange County Schools,A L Stanback Middle,52.3,C,59.5,3
130304,A T Allen Elementary,Cabarrus,Concord,"3939 Abilene Rd, Concord, NC 28025",-80.513661,35.362707,Cabarrus County Schools,A T Allen Elementary,58.1,C,61.6,2
13C000,A.C.E. Academy,Cabarrus,Harrisburg,"7807 Caldwell Road, Harrisburg, NC 28075",-80.6730051,35.3082994,Charter Schools,A.C.E. Academy,57.1,D,39.1,4
920303,Abbotts Creek Elementary,Wake,Raleigh,"9900 Durant Road, Raleigh, NC 27614",-78.578003,35.902786,Wake County Schools,Abbotts Creek Elementary,24.1,B,73.6,2
630308,Aberdeen Elementary,Moore,Aberdeen,"503 Sandhills Blvd N, Aberdeen, NC 28315",-79.426078,35.139826,Moore County Schools,Aberdeen Elementary,81.6,D,35.1,4
630304,Aberdeen Primary,Moore,Aberdeen,"310 Keyser St, Aberdeen, NC 28315",-79.423373,35.124083,aanomatch,aanomatch,,,,
410545,Academy at Smith,Guilford,Greensboro,"2225 South Holden Road, Greensboro, NC 27407",-79.8494506,36.0379155,Guilford County Schools,Academy at Smith,80,B,55,3
240308,Acme Delco Elementary,Columbus,Riegelwood,"16337 Old Lake Road, Riegelwood, NC 28456",-78.2544189,34.3475806,Columbus County Schools,Acme Delco Elementary,82.1,D,48,3
240304,Acme Delco Middle,Columbus,Delco,"26133 Andrew Jackson Hwy, Delco, NC 28436",-78.7141765,34.3485085,Columbus County Schools,Acme Delco Middle,79.5,C,47.3,3
920304,Adams Elementary,Wake,Cary,"805 Cary Towne Blvd, Cary, NC 27511",-78.7616244,35.7772888,Wake County Schools,Adams Elementary,45.8,C,62.6,2
910368,AdVance Academy,Vance,Henderson,"219 Charles Street, Henderson, NC 27536",-78.3997016,36.3277107,aanomatch,aanomatch,,,,
490307,Agriculture and Science Early College,Iredell,Olin,"158 Raider Rd, Olin, NC 28660",-80.8676113,35.9278219,Iredell-Statesville Schools,Agriculture and Science Early College,28.9,A,87.2,1
460308,Ahoskie Elementary,Hertford,Ahoskie,"200 N Talmage St, Ahoskie, NC 27910",-76.994518,36.2916745,Hertford County Schools,Ahoskie Elementary,63.7,F,34.3,4
410304,Alamance Elementary,Guilford,Greensboro,"3600 Williams Dairy Road, Greensboro, NC 27406",-79.7078376,36.0172276,Guilford County Schools,Alamance Elementary,37.7,B,73.2,2
10303,Alamance-Burlington Middle/Early College,Alamance,Graham,"1247 Jimmie Kerr Road, Graham, NC 27253",-79.3575561,36.0667853,Alamance-Burlington Schools,ABSS Early College at ACC,43.8,A,84.2,1
010LEA,Alamance-Burlington Schools,Alamance,Burlington,"1712 Vaughn Road, Burlington, NC 27217",-79.4087567,36.1020902,aanomatch,aanomatch,,,,
840302,Albemarle High,Stanly,Albemarle,"311 Park Ridge Road, Albemarle, NC 28001",-80.192856,35.371967,Stanly County Schools,Albemarle High,66,C,30.5,4
840303,Albemarle Middle,Stanly,Albemarle,"1811 Badin Road, Albemarle, NC 28001",-80.1684118,35.3537524,Stanly County Schools,Albemarle Middle,56.6,C,46.5,3
600300,Albemarle Road Elementary,Mecklenburg,Charlotte,"7800 Riding Trail Rd, Charlotte, NC 28212",-80.729483,35.197161,Charlotte-Mecklenburg Schools,Albemarle Road Elementary,57.7,C,52.2,3
600301,Albemarle Road Middle,Mecklenburg,Charlotte,"6900 Democracy Dr, Charlotte, NC 28212",-80.729263,35.199266,Charlotte-Mecklenburg Schools,Albemarle Road Middle,49.1,D,43.1,3
250304,Albert H Bangert Elementary,Craven,New Bern,"3712 Canterbury Road, New Bern, NC 28562",-77.08364,35.083429,Craven County Schools,Albert H Bangert Elementary,57.7,B,75.1,2
260364,Alderman Road Elementary,Cumberland,Fayetteville,"2860 Alderman Road, Fayetteville, NC 28306",-78.860293,34.8952244,Cumberland County Schools,Alderman Road Elementary,55.8,C,55.7,3
20302,Alexander Central High,Alexander,Taylorsville,"223 School Drive, Taylorsville, NC 28681",-81.1893043,35.9167533,Alexander County Schools,Alexander Central High,38.3,B,52.7,3
020LEA,Alexander County Schools,Alexander,Taylorsville,"700 Liledoun Road, Taylorsville, NC 28681",-81.1894076,35.9131358,aanomatch,aanomatch,,,,
20303,Alexander Early College,Alexander,Taylorsville,"230 Industrial Blvd, Taylorsville, NC 28681",-81.1815586,35.910777,Alexander County Schools,Alexander Early College,27.5,A,87.3,1
600399,Alexander Graham Middle,Mecklenburg,Charlotte,"1800 Runnymede Ln, Charlotte, NC 28211",-80.8329229,35.166814,Charlotte-Mecklenburg Schools,Alexander Graham Middle,27.1,B,71.8,2
10304,Alexander Wilson Elementary,Alamance,Graham,"2518 NC 54, Graham, NC 27253",-79.3466437,36.0298515,Alamance-Burlington Schools,Alexander Wilson Elementary,49.8,C,59.9,3
260374,Alger B. Wilkins High School,Cumberland,Fayetteville,"1429 Skibo Road, Fayetteville, NC 28303",-78.951898,35.082547,aanomatch,aanomatch,,,,
030LEA,Alleghany County Schools,Alleghany,Sparta,"85 Peachtree Street, Sparta, NC 28675",-81.1225595,36.5118416,aanomatch,aanomatch,,,,
30304,Alleghany High,Alleghany,Sparta,"404 Trojan Avenue, Sparta, NC 28675",-81.1228223,36.513866,Alleghany County Schools,Alleghany High,51.9,B,56.5,3
410310,Allen Jay Elementary,Guilford,High Point,"1311 East Springfield Road, High Point, NC 27263",-79.9554544,35.9322724,Guilford County Schools,Allen Jay Elementary,58,D,45.1,3
410311,Allen Jay Middle - A Preparatory Academy,Guilford,High Point,"1201 East Fairfield Rd, High Point, NC 27263",-79.9619333,35.9253078,Guilford County Schools,Allen Jay Middle - A Preparatory Academy,41.4,C,60.1,2
410316,Allen Middle,Guilford,Greensboro,"1108 Glendale Drive, Greensboro, NC 27406",-79.8234499,36.011131,Guilford County Schools,Allen Middle,59.5,D,39.2,4
600308,Allenbrook Elementary,Mecklenburg,Charlotte,"1430 Allenbrook Dr, Charlotte, NC 28208",-80.9151119,35.261705,Charlotte-Mecklenburg Schools,Allenbrook Elementary,73.4,F,30.4,4
260302,Alma O Easom Elementary,Cumberland,Fayetteville,"1610 Westlawn Avenue, Fayetteville, NC 28305",-78.9085351,35.06086,aanomatch,aanomatch,,,,
26B000,Alpha Academy,Cumberland,Fayetteville,"8030 Raeford Road, Fayetteville, NC 28304",-79.066933,35.0340488,Charter Schools,Alpha Academy,49.3,B,66.9,2
920307,Alston Ridge Elementary,Wake,Cary,"11555 Green Level Church Rd., Cary, NC 27519",-78.8995543,35.8593676,Wake County Schools,Alston Ridge Elementary,10.4,B,80.5,1
10308,Altamahaw Ossipee Elem,Alamance,Elon,"2832 N NC 87, Elon, NC 27244",-79.5104138,36.1795464,Alamance-Burlington Schools,Altamahaw-Ossipee Elementary,46.8,C,61.3,2
49B000,American Renaissance School,Iredell,Statesville,"132 East Broad Street, Statesville, NC 28677",-80.8867649,35.7847122,Charter Schools,American Renaissance School,13.9,B,65.4,2
43C000,Anderson Creek Academy,Harnett,Spring Lake,"4940 Ray Road, Spring Lake, NC 28390",-78.9771037,35.2778901,Charter Schools,Anderson Creek Academy,5.6,B,77.8,2
430304,Anderson Creek Primary,Harnett,Bunnlevel,"914 Anderson Creek Sch Rd, Bunnlevel, NC 28323",-78.9174683,35.2817479,aanomatch,aanomatch,,,,
200304,Andrews Elementary,Cherokee,Andrews,"205 Jean Christy Ave., Andrews, NC 28901",-83.8253425,35.1982824,Cherokee County Schools,Andrews Elementary,42.9,C,67.4,2
200308,Andrews High,Cherokee,Andrews,"50 High School Drive, Andrews, NC 28901",-83.824324,35.196091,Cherokee County Schools,Andrews High,60.8,B,67,2
200310,Andrews Middle,Cherokee,Andrews,"2750 Business Hwy 19, Andrews, NC 28901",-83.797199,35.194814,Cherokee County Schools,Andrews Middle,66.8,B,63.8,2
430308,Angier Elementary,Harnett,Angier,"130 E McIver St, Angier, NC 27501",-78.7361073,35.5028926,Harnett County Schools,Angier Elementary,73.5,D,41.9,3
260336,Anne Chesnutt Middle,Cumberland,Fayetteville,"2121 Skibo Road, Fayetteville, NC 28314",-78.9734273,35.0503665,Cumberland County Schools,Anne Chesnutt Middle,63.1,D,39.2,4
40305,Anson Academy,Anson,Wadesboro,"118 N. Ashe Street, Wadesboro, NC 28170",-80.0788573,34.9609371,aanomatch,aanomatch,,,,
40304,Anson Co. Early College High,Anson,Polkton,"177 Ledbetter Street, Polkton, NC 28135",-80.2114155,34.9987204,Anson County Schools,Anson Co. Early College High,33.6,B,56.5,3
040LEA,Anson County Schools,Anson,Wadesboro,"320 Camden Road, Wadesboro, NC 28170",-80.0808571,34.9632751,aanomatch,aanomatch,,,,
40306,Anson High School,Anson,Wadesboro,"96 Anson High School Road, Wadesboro, NC 28170",-80.1037392,34.9768643,Anson County Schools,Anson High School,50.7,D,23.5,4
40309,Anson Middle,Anson,Wadesboro,"832 US Hwy 52 N, Wadesboro, NC 28170",-80.0882123,34.9896098,Anson County Schools,Anson Middle,55.2,D,35.6,4
40308,Ansonville Elementary,Anson,Ansonville,"9104 Hwy 52 N, Ansonville, NC 28007",-80.10718,35.1051069,Anson County Schools,Ansonville Elementary,42.1,B,63.9,2
900302,Antioch Elementary,Union,Matthews,"3101 Antioch Church Road, Matthews, NC 28104",-80.7223946,35.0588827,Union County Public Schools,Antioch Elementary,7.2,A,89.9,1
920308,Apex Elementary,Wake,Apex,"700 Tingen Road, Apex, NC 27502",-78.856537,35.720976,Wake County Schools,Apex Elementary,26.2,B,76.6,2
920317,Apex Friendship High,Wake,Apex,"7801 Humie Olive Rd, Apex, NC 27502",-78.9098714,35.7025517,Wake County Schools,Apex Friendship High,7.7,B,78.7,2
920315,Apex Friendship Middle,Wake,Apex,,,,Wake County Schools,Apex Friendship Middle,13.1,A,84,1
920316,Apex High,Wake,Cary,"7600 Roberts Road, Cary, NC 27519",-78.8999931,35.7712734,Wake County Schools,Apex High,13.9,B,74.9,2
920312,Apex Middle,Wake,Apex,"400 East Moore Street, Apex, NC 27502",-78.8490785,35.7270871,Wake County Schools,Apex Middle,18.3,B,76.5,2
34Z000,Appalachian Academy at Middle Fork,aaUnknown,,,,,Lab Schools,Appalachian Academy at Middle Fork,<5,D,25.4,4
450301,Apple Valley Middle,Henderson,Hendersonville,"43 Fruitland Road, Hendersonville, NC 28792",-82.4228206,35.3602864,Henderson County Schools,Apple Valley Middle,69.4,C,54.5,3
840304,Aquadale Elementary,Stanly,Norwood,"11707 NC Hwy 138, Norwood, NC 28128",-80.2236211,35.2288743,Stanly County Schools,Aquadale Elementary,49.5,C,61.8,2
69A000,Arapahoe Charter School,Pamlico,Arapahoe,"9005 NC Hwy 306 S, Arapahoe, NC 28510",-76.8215494,35.01302,Charter Schools,Arapahoe Charter School,60.4,C,58.3,3
760304,Archdale Elementary,Randolph,Archdale,"207 Trindale Rd, Archdale, NC 27263",-79.9752,35.912816,Randolph County Schools,Archdale Elementary,62,B,71.3,2
760378,Archdale-Trinity Middle,Randolph,Trinity,"5105 Archdale Road, Trinity, NC 27370",-79.9541564,35.8859827,Randolph County Schools,Archdale-Trinity Middle,46,C,54.3,3
410322,Archer Elementary,Guilford,Greensboro,"2610 Four Seasons Boulevard, Greensboro, NC 27407",-79.830431,36.031075,Guilford County Schools,Archer Elementary,54.5,C,55.2,3
510364,Archer Lodge Middle,Johnston,Wendell,"762 Wendell Rd, Wendell, NC 27591",-78.3658676,35.7038238,Johnston County Schools,Archer Lodge Middle,30.9,C,54.7,3
600302,Ardrey Kell High,Mecklenburg,Charlotte,"10220 Ardrey Kell Rd, Charlotte, NC 28277",-80.8272254,35.0299517,Charlotte-Mecklenburg Schools,Ardrey Kell High,9.6,A,88.7,1
60N000,Aristotle Preparatory Academy,Mecklenburg,Charlotte,"8101 Fallsdale Drive, Charlotte, NC 28214",-80.9523886,35.3054137,Charter Schools,Aristotle Preparatory Academy,73.5,C,54.3,3
260306,Armstrong Elementary,Cumberland,Eastover,"3395 Dunn Road, Eastover, NC 28312",-78.791366,35.0915139,Cumberland County Schools,Armstrong Elementary,49.5,B,68.9,2
250380,Arthur W Edwards Elementary,Craven,Havelock,"200 Education Lane, Havelock, NC 28532",-76.9273043,34.9096726,Craven County Schools,Arthur W Edwards Elementary,53.8,C,60.1,2
11B000,ArtSpace Charter School,Buncombe,Swannanoa,"2030 US Hwy 70, Swannanoa, NC 28778",-82.4288491,35.5948191,Charter Schools,ArtSpace Charter School,13.8,B,69.4,2
550308,Asbury Academy,Lincoln,Lincolnton,"221 Salem Church Road, Lincolnton, NC 28092",-81.2079886,35.4778139,aanomatch,aanomatch,,,,
53B000,Ascend Leadership Academy Lee County,Lee,,,,,Charter Schools,Ascend Leadership Academy Lee County,17.4,D,54.1,3
360310,Ashbrook High,Gaston,Gastonia,"2222 S New Hope Road, Gastonia, NC 28054",-81.1274274,35.2432229,Gaston County Schools,Ashbrook High,60.7,B,53.4,3
50303,Ashe County Early College High,Ashe,,,,,Ashe County Schools,Ashe County Early College High,36.7,A,95,1
50302,Ashe County High,Ashe,West Jefferson,"184 Campus Drive, West Jefferson, NC 28694",-81.478117,36.392264,Ashe County Schools,Ashe County High,51.5,C,51.4,3
50305,Ashe County Middle,Ashe,Warrensville,"255 Northwest Lane, Warrensville, NC 28693",-81.509979,36.462739,Ashe County Schools,Ashe County Middle,55.4,B,72,2
050LEA,Ashe County Schools,Ashe,Jefferson,"320 South Street, Jefferson, NC 28640",-81.4685355,36.4200057,aanomatch,aanomatch,,,,
761LEA,Asheboro City Schools,Randolph,Asheboro,"1126 S Park Street, Asheboro, NC 27203",-79.821426,35.692182,aanomatch,aanomatch,,,,
761304,Asheboro High,Randolph,Asheboro,"1221 S Park St, Asheboro, NC 27203",-79.8186435,35.689799,Asheboro City Schools,Asheboro High,66.1,B,55.6,3
111LEA,Asheville City Schools,Buncombe,Asheville,"85 Mountain Street, Asheville, NC 28801",-82.5420027,35.5972057,aanomatch,aanomatch,,,,
111302,Asheville High,Buncombe,Asheville,"419 McDowell Street, Asheville, NC 28803",-82.5517436,35.57262,Asheville City Schools,Asheville High,25.2,B,62.8,2
111356,Asheville Middle,Buncombe,Asheville,"211 S French Broad Avenue, Asheville, NC 28801",-82.559725,35.586504,Asheville City Schools,Asheville Middle,39.8,C,59.5,3
111307,Asheville Primary,Buncombe,Asheville,"441 Haywood Rd, Asheville, NC 28806",-82.5816504,35.5784638,aanomatch,aanomatch,,,,
340308,Ashley Academy,Forsyth,Winston-Salem,"1647 Ashley School Circle, Winston-Salem, NC 27105",-80.2217616,36.1176872,Forsyth County Schools,Ashley Academy,81.5,F,19.4,5
770342,Ashley Chapel Educational Center,Richmond,Rockingham,"377 Mizpah Road, Rockingham, NC 28379",-79.7842291,34.896883,aanomatch,aanomatch,,,,
260308,Ashley Elementary,Cumberland,Fayetteville,"810 Trainer Drive, Fayetteville, NC 28304",-78.9069875,35.0386325,Cumberland County Schools,Ashley Elementary,59,C,48.3,3
600311,Ashley Park PreK-8 School,Mecklenburg,Charlotte,"2401 Belfast Dr, Charlotte, NC 28208",-80.891217,35.232769,Charlotte-Mecklenburg Schools,Ashley Park PreK-8 School,74.2,D,31.1,4
920318,Athens Drive High,Wake,Raleigh,"1420 Athens Drive, Raleigh, NC 27606",-78.7113269,35.7686517,Wake County Schools,Athens Drive High,37.6,B,59.8,3
340311,Atkins Academic & Tech High,Forsyth,Winston-Salem,"3605 Old Greensboro Road, Winston-Salem, NC 27101",-80.195844,36.1105579,Forsyth County Schools,Atkins Academic & Tech High,26,A,80.3,1
450302,Atkinson Elementary,Henderson,Hendersonville,"2510 Old Kanuga Road, Hendersonville, NC 28739",-82.4929738,35.2841292,Henderson County Schools,Atkinson Elementary,43.3,B,80.8,1
160304,Atlantic Elementary,Carteret,Atlantic,"151 School Drive, Atlantic, NC 28511",-76.343587,34.884413,Carteret County Public Schools,Atlantic Elementary,78.6,B,70,2
80348,Aulander Elementary,Bertie,Aulander,"2515 NC Highway 305 North, Aulander, NC 27805",-77.1058429,36.2154879,Bertie County Schools,Aulander Elementary,63.9,C,53.1,3
420304,Aurelian Springs Institute of Global Lea,Halifax,Littleton,"10536 Hwy 48, Littleton, NC 27850",-77.8081687,36.3638809,Halifax County Schools,Aurelian Springs Institute of Global Lea,69.5,C,47.5,3
920320,Aversboro Elementary,Wake,Garner,"1605 Aversboro Rd, Garner, NC 27529",-78.6152841,35.6887639,Wake County Schools,Aversboro Elementary,60.8,D,43.7,3
60302,Avery County High,Avery,Newland,"401 Avery County High School Road, Newland, NC 28657",-81.91897,36.0692387,Avery County Schools,Avery County High,46.9,B,62.5,2
060LEA,Avery County Schools,Avery,Newland,"775 Cranberry Street, Newland, NC 28657",-81.930037,36.0963223,aanomatch,aanomatch,,,,
60700,Avery High STEM Academy,Avery,Newland,"401 Avery County High School Rd, Newland, NC 28657",-81.91897,36.0692387,aanomatch,aanomatch,,,,
60701,Avery High Viking Academy,Avery,Newland,"401 Avery County High School Rd, Newland, NC 28657",-81.91897,36.0692387,Avery County Schools,Avery High Viking Academy,60,F,10.5,5
60318,Avery Middle,Avery,Newland,"102 Old Montezuma Road, Newland, NC 28657",-81.9159937,36.067157,Avery County Schools,Avery Middle,55.7,B,70.8,2
110410,Avery's Creek Elementary,Buncombe,Arden,"15 Park South Boulevard, Arden, NC 28704",-82.5792672,35.4774437,Buncombe County Schools,Avery's Creek Elementary,63.9,D,48.5,3
910304,Aycock Elementary,Vance,Henderson,"305 Carey Chapel Rd, Henderson, NC 27537",-78.3614166,36.3208051,Vance County Schools,Aycock Elementary,58.4,C,57.7,3
740304,Ayden Elementary,Pitt,Ayden,"187 Third Street, Ayden, NC 28513",-77.4319198,35.4751441,Pitt County Schools,Ayden Elementary,65.6,C,50,3
740308,Ayden Middle,Pitt,Ayden,"192 Third St, Ayden, NC 28513",-77.4345187,35.4712602,Pitt County Schools,Ayden Middle,56.5,C,58.8,3
740309,Ayden-Grifton High,Pitt,Ayden,"7653 NC 11 South, Ayden, NC 28513",-77.4312013,35.4302132,Pitt County Schools,Ayden-Grifton High,62,C,36.9,4
70310,B C Ed Tech Center,Beaufort,Washington,"820 North Bridge St, Washington, NC 27899",-77.0562215,35.5523349,aanomatch,aanomatch,,,,
10346,B Everett Jordan Elem,Alamance,Graham,"5827 Church Road, Graham, NC 27253",-79.3267517,35.9397887,Alamance-Burlington Schools,B. Everett Jordan Elementary,59.6,D,41.6,3
310304,B F Grady Elementary,Duplin,Albertson,"2627 N NC 11 & 903, Albertson, NC 28508",-77.8266212,35.0568712,Duplin County Schools,B F Grady Elementary,69.5,D,43.2,3
980308,B O Barnes Elementary,Wilson,Wilson,"1913 Martin L King Parkway, Wilson, NC 27893",-77.8865965,35.712878,Wilson County Schools,B O Barnes Elementary,78.8,F,22,4
90304,B T Washington Primary,Bladen,Clarkton,"66 Booker T Washington Road, Clarkton, NC 28433",-78.666651,34.500835,aanomatch,aanomatch,,,,
840308,Badin Elementary,Stanly,Badin,"47 Henderson St, Badin, NC 28009",-80.1147462,35.4019947,Stanly County Schools,Badin Elementary,56.1,B,69.2,2
640304,Bailey Elementary,Nash,Bailey,"6288 Pine Street, Bailey, NC 27807",-78.1155507,35.7820448,Nash-Rocky Mount Schools,Bailey Elementary,40.5,C,51.6,3
600313,Bailey Middle,Mecklenburg,Cornelius,"11900 Bailey Rd, Cornelius, NC 28031",-80.8375194,35.4675588,Charlotte-Mecklenburg Schools,Bailey Middle,17.8,A,86,1
920326,Baileywick Road Elementary,Wake,Raleigh,"9425 Baileywick Road, Raleigh, NC 27615",-78.664731,35.909168,Wake County Schools,Baileywick Road Elementary,55.7,D,50.8,3
600314,Bain Elementary,Mecklenburg,Charlotte,"11540 Bain School Rd, Charlotte, NC 28227",-80.6496049,35.173267,Charlotte-Mecklenburg Schools,Bain Elementary,18,A,84.2,1
995304,Bald Creek Elementary,Yancey,Burnsville,"100 Bald Creek School Road, Burnsville, NC 28714",-82.423218,35.91298,Yancey County Schools,Bald Creek Elementary,58.6,A,85.3,1
761312,Balfour Elementary,Randolph,Asheboro,"2097 N Asheboro School Rd, Asheboro, NC 27203",-79.8216787,35.7457357,Asheboro City Schools,Balfour Elementary,86.2,C,60.2,2
600437,Ballantyne Elementary,Mecklenburg,Charlotte,"15425 Scholastic Dr, Charlotte, NC 28277",-80.856065,35.037307,Charlotte-Mecklenburg Schools,Ballantyne Elementary,12.7,B,78.4,2
920327,Ballentine Elementary,Wake,Fuquay Varina,"1651 North McLaurin Lane, Fuquay Varina, NC 27526",-78.7716863,35.6133767,Wake County Schools,Ballentine Elementary,27,C,65.8,2
180304,Balls Creek Elementary,Catawba,Newton,"2620 Balls Creek Road, Newton, NC 28658",-81.127421,35.630981,Catawba County Schools,Balls Creek Elementary,49.7,B,68.3,2
180308,Bandys High,Catawba,Catawba,"5040 E Bandys Road, Catawba, NC 28609",-81.0856675,35.6446944,Catawba County Schools,Bandys High,30.4,B,69.6,2
540304,Banks Elementary,Lenoir,Kinston,"2148 Falling Creek Rd, Kinston, NC 28504",-77.6799582,35.2807256,Lenoir County Public Schools,Banks Elementary,55.3,C,59.6,3
920325,Banks Road Elementary,Wake,Raleigh,"10225 Chambers Rd, Raleigh, NC 27603",-78.7101307,35.6313522,Wake County Schools,Banks Road Elementary,32.1,C,61.6,2
60304,Banner Elk Elementary,Avery,Banner Elk,"155 Orchard Lane, Banner Elk, NC 28604",-81.8572987,36.1488516,Avery County Schools,Banner Elk Elementary,52.5,B,68.4,2
180312,Banoak Elementary,Catawba,Vale,"7651 W NC 10 Hwy, Vale, NC 28168",-81.4165581,35.5822564,Catawba County Schools,Banoak Elementary,59.7,C,57.9,3
110308,Barnardsville Elementary,Buncombe,Barnardsville,"20 Hillcrest Drive, Barnardsville, NC 28709",-82.459703,35.775168,Buncombe County Schools,Barnardsville Elementary,61.8,C,56.2,3
600328,Barnette Elementary,Mecklenburg,Huntersville,"13659 Beatties Ford Rd, Huntersville, NC 28078",-80.925014,35.399592,Charlotte-Mecklenburg Schools,Barnette Elementary,21.8,B,70.4,2
600316,Barringer Academic Center,Mecklenburg,Charlotte,"1546 Walton Rd, Charlotte, NC 28208",-80.88967,35.211871,Charlotte-Mecklenburg Schools,Barringer Academic Center,44.9,C,62.9,2
170316,Bartlett Yancey High,Caswell,Yanceyville,"466 Main Street E, Yanceyville, NC 27379",-79.3270991,36.4037802,Caswell County Schools,Bartlett Yancey High,55.1,C,33.3,4
920329,Barwell Road Elementary,Wake,Raleigh,"3925 Barwell Road, Raleigh, NC 27610",-78.5514452,35.731847,Wake County Schools,Barwell Road Elementary,76.3,F,33.1,4
640306,Baskerville Elementary,Nash,Rocky Mount,"1100 Stokes Avenue, Rocky Mount, NC 27801",-77.7713841,35.9505403,Nash-Rocky Mount Schools,Baskerville Elementary,85.9,F,19,5
70308,Bath Elementary,Beaufort,Bath,"110 S King Street, Bath, NC 27808",-76.8111894,35.4751685,Beaufort County Schools,Bath Elementary,27.7,C,68.3,2
140304,Baton Elementary,Caldwell,Granite Falls,"1400 Baton School Road, Granite Falls, NC 28630",-81.536672,35.809198,Caldwell County Schools,Baton Elementary,60.2,C,65,2
550312,Battleground Elementary,Lincoln,Lincolnton,"201 Jeb Seagle Dr, Lincolnton, NC 28092",-81.2624659,35.4801701,Lincoln County Schools,Battleground Elementary,65.6,D,44.3,3
920328,Baucom Elementary,Wake,Apex,"400 Hunter St, Apex, NC 27502",-78.8541275,35.7369998,Wake County Schools,Baucom Elementary,20.6,B,79.7,2
58B000,Bear Grass Charter School,Martin,Williamston,"6344 E Bear Grass Rd, Williamston, NC 27982",-77.1265283,35.7688102,Charter Schools,Bear Grass Charter School,14.9,B,70.9,2
460312,Bearfield Primary,Hertford,Ahoskie,"145 Hertford Co High School Rd, Ahoskie, NC 27910",-76.993872,36.295519,Hertford County Schools,Bearfield Primary,64.6,C,65.5,2
70311,Beaufort Co Early College High,Beaufort,Washington,"5337 Hwy 264 East, Washington, NC 27889",-76.9652678,35.5337105,Beaufort County Schools,Beaufort Co Early College High,53.1,A,>95,1
070LEA,Beaufort County Schools,Beaufort,Washington,"321 Smaw Road, Washington, NC 27889",-77.0184721,35.5427542,aanomatch,aanomatch,,,,
160308,Beaufort Elementary,Carteret,Beaufort,"110 Carraway Drive, Beaufort, NC 28516",-76.6469568,34.7296582,Carteret County Public Schools,Beaufort Elementary,71.3,B,67.5,2
160310,Beaufort Middle,Carteret,Beaufort,"100 Carraway Drive, Beaufort, NC 28516",-76.6446104,34.7300759,Carteret County Public Schools,Beaufort Middle,67,B,66,2
260312,Beaver Dam Elementary,Cumberland,Roseboro,"12059 Hwy 210 S, Roseboro, NC 28382",-78.5807717,34.8944101,Cumberland County Schools,Beaver Dam Elementary,56,A,86.9,1
920332,Beaverdam Elementary,Wake,Raleigh,"3591 Tarheel Club Rd, Raleigh, NC 27604",-78.5281927,35.821173,Wake County Schools,Beaverdam Elementary,64.1,D,43.8,3
980318,Beddingfield High,Wilson,Wilson,"4510 Old Stantonsburg Rd, Wilson, NC 27893",-77.8758512,35.6600796,Wilson County Schools,Beddingfield High,24.1,C,53.8,3
995308,Bee Log Elementary,Yancey,Burnsville,"55 Bee Log Road, Burnsville, NC 28714",-82.408924,35.983203,aanomatch,aanomatch,,,,
110332,Bell Elementary,Buncombe,Asheville,"90 Maple Springs Road, Asheville, NC 28805",-82.492847,35.589248,Buncombe County Schools,Bell Elementary,53,C,59,3
670304,Bell Fork Elementary,Onslow,Jacksonville,"500 Bell Fork Rd, Jacksonville, NC 28540",-77.3923466,34.7528958,Onslow County Schools,Bell Fork Elementary,69.8,C,57.3,3
360320,Belmont Central Elementary,Gaston,Belmont,"310 Eagle Road, Belmont, NC 28012",-81.0505928,35.2408792,Gaston County Schools,Belmont Central Elementary,27.6,B,75.6,2
421304,Belmont Elementary School,Halifax,Roanoke Rapids,"1517 Bolling Road, Roanoke Rapids, NC 27870",-77.674563,36.464829,Roanoke Rapids City Schools,Belmont Elementary School,80.4,C,42.8,3
360324,Belmont Middle,Gaston,Belmont,"110 N Central Avenue, Belmont, NC 28012",-81.0416096,35.2417884,Gaston County Schools,Belmont Middle,31.1,B,72.3,2
100302,Belville Elementary,Brunswick,Leland,"575 River Road, Leland, NC 28451",-77.9841636,34.2209184,Brunswick County Schools,Belville Elementary,55.6,B,62.9,2
740310,Belvoir Elementary,Pitt,Greenville,"2568 NC 33 West, Greenville, NC 27834",-77.41742,35.668157,Pitt County Schools,Belvoir Elementary,75.2,D,42.2,3
250306,Ben D Quinn Elementary,Craven,New Bern,"4275 M L King Jr Boulevard, New Bern, NC 28562",-77.128472,35.0918956,Craven County Schools,Ben D Quinn Elementary,54.1,C,60.7,2
410544,Ben L. Smith High School,Guilford,Greensboro,"2407 South Holden Road, Greensboro, NC 27407",-79.847112,36.034726,Guilford County Schools,Ben L. Smith High School,58.6,D,27.7,4
430312,Benhaven Elementary,Harnett,Sanford,"2815 Olivia Road, Sanford, NC 27332",-79.094453,35.359541,Harnett County Schools,Benhaven Elementary,42.2,B,70,2
260414,Benjamin J Martin Elementary,Cumberland,Fayetteville,"430 N Reilly Road, Fayetteville, NC 28303",-79.0094964,35.0929339,Cumberland County Schools,Benjamin J Martin Elementary,68.8,D,47.7,3
190304,Bennett School,Chatham,Bennett,"61 Randolph Street, Bennett, NC 27208",-79.5457235,35.5625274,Chatham County Schools,Bennett School,40.7,B,71.8,2
510308,Benson Elementary,Johnston,Benson,"2040 Hwy 50 N, Benson, NC 27504",-78.5550559,35.400258,Johnston County Schools,Benson Elementary,67.7,D,37.1,4
510310,Benson Middle,Johnston,Benson,"1600 N Wall Street, Benson, NC 27504",-78.532152,35.389153,Johnston County Schools,Benson Middle,63.2,D,39.5,4
900304,Benton Heights Elementary,Union,Monroe,"1200 Concord Ave, Monroe, NC 28110",-80.5535799,34.9935991,Union County Public Schools,Benton Heights Elementary,47.4,C,47.2,3
640308,Benvenue Elementary,Nash,Rocky Mount,"2700 Nicodemus Mile Road, Rocky Mount, NC 27804",-77.8378954,35.9750391,Nash-Rocky Mount Schools,Benvenue Elementary,51.4,D,37.5,4
600369,Berewick Elementary,Mecklenburg,Charlotte,"5910 Dixie River Rd, Charlotte, NC 28278",-80.9795023,35.1731827,Charlotte-Mecklenburg Schools,Berewick Elementary,47.3,C,60.4,2
600319,Berryhill School,Mecklenburg,Charlotte,"10501 Windy Grove Rd, Charlotte, NC 28278",-80.990504,35.213002,Charlotte-Mecklenburg Schools,Berryhill School,40.7,C,51.2,3
080LEA,Bertie County Schools,Bertie,Windsor,"715 US Highway 13 North, Windsor, NC 27983",-76.9710287,36.0502042,aanomatch,aanomatch,,,,
80311,Bertie Early College High,Bertie,Windsor,"819 Governors Road, Windsor, NC 27983",-77.0134803,36.0343083,Bertie County Schools,Bertie Early College High,31.4,A,85.2,1
80312,Bertie High,Bertie,Windsor,"716 US Hwy 13 North, Windsor, NC 27983",-78.0609004,35.3202529,Bertie County Schools,Bertie High,56.7,D,26.2,4
80314,Bertie Middle,Bertie,Windsor,"652 US Hwy 13 North, Windsor, NC 27983",-76.9645761,36.0476907,Bertie County Schools,Bertie Middle,58.2,D,45,3
360332,Bessemer City Central Elem,Gaston,Bessemer City,"1400 Puett's Chapel Road, Bessemer City, NC 28016",-81.2753965,35.3025408,Gaston County Schools,Bessemer City Central Elem,60.2,D,33.1,4
360336,Bessemer City High,Gaston,Bessemer City,"119 Yellow Jacket Lane, Bessemer City, NC 28016",-81.2807176,35.2979309,Gaston County Schools,Bessemer City High,63.6,D,26.8,4
360436,Bessemer City Middle,Gaston,Bessemer City,"525 Ed Wilson Road, Bessemer City, NC 28016",-81.29983,35.272019,Gaston County Schools,Bessemer City Middle,51.2,C,43.9,3
360338,Bessemer City Primary,Gaston,Bessemer City,"1320 North 12th Street, Bessemer City, NC 28016",-81.275058,35.300151,aanomatch,aanomatch,,,,
410328,Bessemer Elementary,Guilford,Greensboro,"918 Huffine Mill Road, Greensboro, NC 27405",-79.736291,36.0895579,Guilford County Schools,Bessemer Elementary,81.3,D,34.2,4
79A000,Bethany Community School,Rockingham,Summerfield,"1288 Hudson Rd, Summerfield, NC 27358",-79.8677733,36.2620483,Charter Schools,Bethany Community School,16.6,C,61.2,2
790302,Bethany Elementary,Rockingham,Reidsville,"271 Bethany Rd, Reidsville, NC 27320",-79.8596955,36.3130465,Rockingham County Schools,Bethany Elementary,36,B,75.6,2
740320,"Bethel Elementary, Bethel",Pitt,Bethel,"152 E. Washington Street, Bethel, NC 27812",-77.370229,35.806211,Pitt County Schools,Bethel Elementary,71.9,C,51.9,3
440314,"Bethel Elementary, Canton",Haywood,Canton,"4700 Old River Road, Canton, NC 28716",-82.8878669,35.4855886,Haywood County Schools,Bethel Elementary,51.8,B,73,2
130308,"Bethel Elementary, Midland",Cabarrus,Midland,"2425 Midland Road, Midland, NC 28107",-80.533242,35.241953,Cabarrus County Schools,Bethel Elementary,43.4,C,60.9,2
950308,"Bethel Elementary, Sugar Grove",Watauga,Sugar Grove,"138 Bethel School Rd, Sugar Grove, NC 28679",-81.848156,36.29486,Watauga County Schools,Bethel Elementary,54.2,C,59.3,3
73A000,Bethel Hill Charter,Person,Roxboro,"401 Bethel Hill School Road, Roxboro, NC 27574",-78.9175594,36.5047579,Charter Schools,Bethel Hill Charter,44,B,68.9,2
440318,Bethel Middle,Haywood,Waynesville,"630 Sonoma Road, Waynesville, NC 28786",-82.895488,35.472304,Haywood County Schools,Bethel Middle,51.7,B,68.8,2
320304,Bethesda Elementary,Durham,Durham,"2009 S Miami Boulevard, Durham, NC 27703",-78.8378281,35.9401449,Durham Public Schools,Bethesda Elementary,56.3,D,39.8,4
20304,Bethlehem Elementary,Alexander,Taylorsville,"7900 NC Hwy 127, Taylorsville, NC 28681",-81.3122655,35.8365179,Alexander County Schools,Bethlehem Elementary,30.9,B,65.5,2
230304,Bethware Elementary,Cleveland,Kings Mountain,"115 Bethware Drive, Kings Mountain, NC 28086",-81.414191,35.248195,Cleveland County Schools,Bethware Elementary,45.4,C,64.4,2
310308,Beulaville Elementary,Duplin,Beulaville,"138 Lyman Road, Beulaville, NC 28518",-77.764042,34.919506,Duplin County Schools,Beulaville Elementary,59.8,C,53.3,3
130309,Beverly Hills Elementary,Cabarrus,Concord,"87 Palaside Drive NE, Concord, NC 28025",-80.5967828,35.4319078,Cabarrus County Schools,Beverly Hills Elementary,31.2,C,59.7,3
600322,Beverly Woods Elementary,Mecklenburg,Charlotte,"6001 Quail Hollow Rd, Charlotte, NC 28210",-80.83718,35.131326,Charlotte-Mecklenburg Schools,Beverly Woods Elementary,12.9,B,80.3,1
260367,Bill Hefner Elementary,Cumberland,Fayetteville,"7059 Calamar Drive, Fayetteville, NC 28314",-79.0451721,35.0684905,Cumberland County Schools,Bill Hefner Elementary,62,C,46.5,3
600335,Billingsville Elementary,Mecklenburg,Charlotte,"124 Skyland Ave, Charlotte, NC 28205",-80.8100428,35.1968477,aanomatch,aanomatch,,,,
110318,Black Mountain Elementary,Buncombe,Black Mountain,"100 Flat Creek Road, Black Mountain, NC 28711",-82.3142408,35.6219536,Buncombe County Schools,Black Mountain Elementary,54.9,C,61.8,2
110320,Black Mountain Primary,Buncombe,Black Mountain,"301 East State Street, Black Mountain, NC 28711",-82.3178576,35.6205827,Buncombe County Schools,Black Mountain Primary,49.9,C,62.8,2
180316,Blackburn Elementary,Catawba,Newton,"4377 W NC 10 Hwy, Newton, NC 28658",-81.3314324,35.6150057,Catawba County Schools,Blackburn Elementary,50.4,C,62.8,2
90376,Bladen Early College,Bladen,,,,,Bladen County Schools,Bladen Early College,74.5,C,54.5,3
90318,Bladen Lakes Primary,Bladen,Elizabethtown,"9554 Johnsontown Road, Elizabethtown, NC 28337",-78.595286,34.711064,Bladen County Schools,Bladen Lakes Primary,83.5,D,47.3,3
90315,Bladenboro Middle,Bladen,Bladenboro,"910 South Main Street, Bladenboro, NC 28320",-78.797447,34.53049,Bladen County Schools,Bladenboro Middle,74.4,C,50.5,3
90317,Bladenboro Primary,Bladen,Bladenboro,"312 Old Whiteville Road, Bladenboro, NC 28320",-78.9856646,34.6114165,Bladen County Schools,Bladenboro Primary,83.9,C,56.3,3
950312,Blowing Rock Elementary,Watauga,Blowing Rock,"165 Morris Street, Blowing Rock, NC 28605",-81.6772993,36.1317042,Watauga County Schools,Blowing Rock Elementary,19.8,B,83.5,1
670308,Blue Creek Elementary,Onslow,Jacksonville,"1260 Burgaw Hwy, Jacksonville, NC 28540",-77.4779123,34.7533537,Onslow County Schools,Blue Creek Elementary,62.1,D,44.4,3
60334,Blue Ridge Academy,Avery,Newland,"76 Old Montezuma Rd, Newland, NC 28657",-81.9163373,36.0678483,aanomatch,aanomatch,,,,
500302,Blue Ridge Early College,Jackson,Cashiers,"95 Bobcat Dr, Cashiers, NC 28717",-83.1202056,35.1284311,Jackson County Schools,Blue Ridge Early College,25.8,D,51.4,3
50310,Blue Ridge Elementary,Ashe,Warrensville,"5778 NC Hwy 88 W, Warrensville, NC 28693",-81.531441,36.4618417,Ashe County Schools,Blue Ridge Elementary,60.1,B,71.9,2
500316,Blue Ridge School,Jackson,Cashiers,"95 Bobcat Drive, Cashiers, NC 28717",-83.1202056,35.1284311,Jackson County Schools,Blue Ridge School,42,D,49,3
410331,Bluford Elementary,Guilford,Greensboro,"1901 Tuscaloosa Street, Greensboro, NC 27401",-79.7646078,36.0577655,Guilford County Schools,Bluford Elementary,74.3,D,30.8,4
600442,Blythe Elementary,Mecklenburg,Huntersville,"12202 Hambright Rd, Huntersville, NC 28078",-80.8353569,35.3764404,Charlotte-Mecklenburg Schools,Blythe Elementary,49.9,C,61,2
160306,Bogue Sound Elementary,Carteret,Newport,"3323 Highway 24, Newport, NC 28570",-76.9520127,34.7206075,Carteret County Public Schools,Bogue Sound Elementary,60.6,B,69.3,2
230308,Boiling Springs Elementary,Cleveland,Shelby,"1522 Patrick Avenue, Shelby, NC 28152",-81.654448,35.2396057,Cleveland County Schools,Boiling Springs Elementary,55.8,B,69.8,2
100304,Bolivia Elementary,Brunswick,Bolivia,"4036 Business Hwy 17-E, Bolivia, NC 28422",-78.1446849,34.070355,Brunswick County Schools,Bolivia Elementary,71.9,B,67,2
340314,Bolton Elementary,Forsyth,Winston Salem,"1250 Bolton Street, Winston Salem, NC 27103",-80.2918719,36.0741102,Forsyth County Schools,Bolton Elementary,63.1,D,36.3,4
190308,Bonlee School,Chatham,Bear Creek,"152 Bonlee School Road, Bear Creek, NC 27207",-79.420708,35.644174,Chatham County Schools,Bonlee School,59.1,C,62,2
970308,Boomer-Ferguson Elementary,Wilkes,Boomer,"556 Boomer-Ferguson Sch Rd, Boomer, NC 28606",-81.298392,36.100955,Wilkes County Schools,Boomer-Ferguson Elementary School,63.8,C,61.7,2
430316,Boone Trail Elementary,Harnett,Lillington,"1425 Adcock Road, Lillington, NC 27546",-78.9506556,35.4000394,Harnett County Schools,Boone Trail Elementary,69.3,D,46.7,3
990304,Boonville Elementary,Yadkin,Boonville,"232 East Main Street, Boonville, NC 27011",-80.7049978,36.2326853,Yadkin County Schools,Boonville Elementary,63.3,B,65.8,2
800312,Bostian Elementary,Rowan,China Grove,"4245 Old Beatty Ford Rd, China Grove, NC 28023",-80.54142,35.523075,Rowan-Salisbury Schools,Bostian Elementary,32.4,C,65.9,2
610302,Bowman Middle,Mitchell,Bakersville,"410 S Mitchell Avenue, Bakersville, NC 28705",-82.1557289,36.010437,Mitchell County Schools,Bowman Middle,51.7,C,50.7,3
60S000,Bradford Preparatory School,Mecklenburg,Charlotte,"2502 Salome Church Rd, Charlotte, NC 28262",-80.7213251,35.3456415,Charter Schools,Bradford Preparatory School,5.3,B,69.5,2
650304,Bradley Creek Elementary,New Hanover,Wilmington,"6211 Greenville Loop, Wilmington, NC 28409",-77.845263,34.1976,New Hanover County Schools,Bradley Creek Elementary,52.4,C,66.4,2
530306,Bragg Street Academy,Lee,Sanford,"504 Bragg Street, Sanford, NC 27330",-79.160111,35.480063,aanomatch,aanomatch,,,,
920334,Brassfield Elementary,Wake,Raleigh,"2001 Brassfield Rd, Raleigh, NC 27614",-78.6284377,35.9336419,Wake County Schools,Brassfield Elementary,29.4,B,71.5,2
490308,"Brawley Middle, Mooresville",Iredell,Mooresville,"132 Swift Arrow Drive, Mooresville, NC 28117",-80.8778054,35.5833924,Iredell-Statesville Schools,Brawley Middle,14.9,B,70.5,2
760308,Braxton Craven Middle,Randolph,Trinity,"7037 NC Highway 62, Trinity, NC 27370",-79.9925544,35.8937115,Randolph County Schools,Braxton Craven Middle,46.2,C,67,2
260320,"Brentwood Elementary, Fayetteville",Cumberland,Fayetteville,"1115 Bingham Drive, Fayetteville, NC 28304",-78.9834365,35.0381295,Cumberland County Schools,Brentwood Elementary,77.7,C,56.6,3
920336,"Brentwood Elementary, Raleigh",Wake,Raleigh,"3426 Ingram Dr, Raleigh, NC 27604",-78.597033,35.8299952,Wake County Schools,Brentwood Elementary,74.8,C,50,3
88A000,Brevard Academy,Transylvania,Pisgah Forest,"1110 Hendersonville Highway, Pisgah Forest, NC 28768",-82.6854276,35.2692904,Charter Schools,Brevard Academy,20.9,B,67.5,2
880304,Brevard Elementary,Transylvania,Brevard,"399 Greenville Hwy, Brevard, NC 28712",-82.7218684,35.2253874,Transylvania County Schools,Brevard Elementary,53.5,C,57.1,3
880308,Brevard High,Transylvania,Brevard,"609 N. Country Club Rd, Brevard, NC 28712",-82.7349386,35.2172551,Transylvania County Schools,Brevard High,35.2,B,68.3,2
880312,Brevard Middle,Transylvania,Brevard,"400 Fisher Rd, Brevard, NC 28712",-82.7284763,35.245981,Transylvania County Schools,Brevard Middle,48.8,B,69,2
920340,Briarcliff Elementary,Wake,Cary,"1220 Pond St, Cary, NC 27511",-78.7872044,35.768811,Wake County Schools,Briarcliff Elementary,41,B,71,2
600329,Briarwood Elementary,Mecklenburg,Charlotte,"1001 Wilann Dr, Charlotte, NC 28215",-80.7655207,35.2518088,Charlotte-Mecklenburg Schools,Briarwood Elementary,55.3,C,49.8,3
97D000,Bridges Academy,Wilkes,State Road,"2587 Pleasant Ridge Road, State Road, NC 28676",-80.884614,36.314907,Charter Schools,Bridges Academy,41.6,D,36.3,4
160309,Bridges School,Carteret,Morehead City,"140 Vashti Dr, Morehead City, NC 28557",-76.7904786,34.7382318,aanomatch,aanomatch,,,,
250308,Bridgeton Elementary,Craven,New Bern,"230 Branch Canal Road, New Bern, NC 28560",-77.042144,35.1545883,Craven County Schools,Bridgeton Elementary,69.6,C,48,3
920342,"Brier Creek Elementary, Raleigh",Wake,Raleigh,"9801 Brier Creek Parkway, Raleigh, NC 27617",-78.8045063,35.9011444,Wake County Schools,Brier Creek Elementary,32.3,C,58.4,3
290302,"Brier Creek Elementary, Thomasville",Davidson,Thomasville,"175 Watford Road, Thomasville, NC 27360",-80.087284,35.798359,Davidson County Schools,Brier Creek Elementary,63.4,B,69.6,2
410334,Brightwood Elementary,Guilford,Greensboro,"2001 Brightwood School Road, Greensboro, NC 27405",-79.7515391,36.147817,Guilford County Schools,Brightwood Elementary,70.9,D,40.4,3
250312,Brinson Memorial Elementary,Craven,New Bern,"319 Neuse Forest Avenue, New Bern, NC 28560",-77.0171783,35.0680855,Craven County Schools,Brinson Memorial Elementary,54,C,55.1,3
160311,Broad Creek Middle,Carteret,Newport,"2382 Hwy 24, Newport, NC 28570",-76.9140549,34.7295904,Carteret County Public Schools,Broad Creek Middle,41.4,B,76.5,2
10310,Broadview Middle,Alamance,Burlington,"2229 Broadview Drive, Burlington, NC 27217",-79.3969707,36.0874369,Alamance-Burlington Schools,Broadview Middle,55.3,F,28.1,4
530308,Broadway Elementary,Lee,Broadway,"307 S Main St, Broadway, NC 27505",-79.0527647,35.4522216,Lee County Schools,Broadway Elementary,72.8,C,48.9,3
960312,"Brogden Middle, Dudley",Wayne,Dudley,"3761 US 117 S Alt, Dudley, NC 28333",-78.036535,35.293618,Wayne County Public Schools,Brogden Middle,84.4,F,29.7,4
320306,"Brogden Middle, Durham",Durham,Durham,"1001 Leon Street, Durham, NC 27704",-78.908729,36.0247847,Durham Public Schools,Brogden Middle,74.2,D,40.2,3
960314,Brogden Primary,Wayne,Dudley,"2253 Old Mt Olive Hwy, Dudley, NC 28333",-78.035295,35.273063,Wayne County Public Schools,Brogden Primary,85.4,D,37,4
920344,Brooks Elementary,Wake,Raleigh,"700 Northbrook Drive, Raleigh, NC 27609",-78.6544383,35.8447693,Wake County Schools,Brooks Elementary,38,C,58.9,3
410337,Brooks Global Elementary,Guilford,Greensboro,"1215 Westover Terrace, Greensboro, NC 27408",-79.8144926,36.0874938,Guilford County Schools,Brooks Global Elementary,39.8,B,80.5,1
360340,Brookside Elementary,Gaston,Gastonia,"1925 Auten Rd., Gastonia, NC 28054",-81.1512179,35.2936803,Gaston County Schools,Brookside Elementary,47.4,D,43.2,3
410341,Brown Summit Middle,Guilford,Browns Summit,"4720 NC Highway 150 East, Browns Summit, NC 27214",-79.701931,36.210539,Guilford County Schools,Brown Summit Middle,16.9,A,>95,1
450306,Bruce Drysdale Elementary,Henderson,Hendersonville,"271 Bearcat Blvd., Hendersonville, NC 28792",-82.4609942,35.3223111,Henderson County Schools,Bruce Drysdale Elementary,66.9,C,50.8,3
862308,Bruce H Tharrington Primary,Surry,Mount Airy,"315 Culbert Street, Mount Airy, NC 27030",-80.6019012,36.490373,aanomatch,aanomatch,,,,
600489,Bruns Academy,Mecklenburg,Charlotte,"501 S. Bruns Ave, Charlotte, NC 28208",-80.8648481,35.2391236,Charlotte-Mecklenburg Schools,Bruns Avenue Elementary,75.3,F,20.2,4
340320,Brunson Elementary,Forsyth,Winston Salem,"155 N Hawthorne Road, Winston Salem, NC 27104",-80.2648442,36.0947631,Forsyth County Schools,Brunson Elementary,45,C,66.7,2
100308,Brunswick County Academy,Brunswick,Bolivia,"1109 Old Ocean Highway, Bolivia, NC 28422",-78.2388036,34.0378753,aanomatch,aanomatch,,,,
100307,Brunswick County Early College,Brunswick,Bolivia,"50 College Road NE, Bolivia, NC 28422",-78.2290128,34.038474,Brunswick County Schools,Brunswick County Early College,46.8,A,>95,1
100LEA,Brunswick County Schools,Brunswick,Bolivia,"35 Referendum Drive, Bolivia, NC 28422",-78.1654392,34.0563348,aanomatch,aanomatch,,,,
570306,Brush Creek Elementary,Madison,Marshall,"265 Upper Brush Creek Road, Marshall, NC 28753",-82.7151272,35.8422761,Madison County Schools,Brush Creek Elementary,56.6,B,80.9,1
920349,Bryan Road Elementary,Wake,,,,,Wake County Schools,Bryan Road Elementary,48.8,B,66.9,2
530302,BT Bullock Elementary,Lee,Sanford,"1410 McNeill Road, Sanford, NC 27330",-79.1860668,35.5065323,Lee County Schools,BT Bullock Elementary,73.2,C,58.5,3
920351,Buckhorn Creek Elementary,Wake,,,,,Wake County Schools,Buckhorn Creek Elementary,32.5,C,63.8,2
370304,Buckland Elementary,Gates,Gates,"448 NC 37 North, Gates, NC 27937",-76.759473,36.468814,Gates County Schools,Buckland Elementary,52.4,C,56.5,3
920352,Bugg Elementary,Wake,Raleigh,"825 Cooper Rd, Raleigh, NC 27610",-78.586134,35.7658999,Wake County Schools,Bugg Elementary,81.2,F,21.6,4
430320,Buies Creek Elementary,Harnett,Buies Creek,"340 Main Street, Buies Creek, NC 27506",-78.7363541,35.4119631,Harnett County Schools,Buies Creek Elementary,42.3,C,56.8,3
110LEA,Buncombe County Schools,Buncombe,Asheville,"175 Bingham Road, Asheville, NC 28806",-82.5839146,35.6068121,aanomatch,aanomatch,,,,
180320,Bunker Hill High,Catawba,Claremont,"4675 Oxford School Road, Claremont, NC 28610",-81.119349,35.7540054,Catawba County Schools,Bunker Hill High,50,C,47.4,3
350304,Bunn Elementary,Franklin,Bunn,"686 Bunn Elem School Road, Bunn, NC 27508",-78.2637315,35.9413066,Franklin County Schools,Bunn Elementary,71,C,62.2,2
350308,Bunn High,Franklin,Bunn,"29 Bunn Elem School Road, Bunn, NC 27508",-78.2499969,35.9539381,Franklin County Schools,Bunn High,53.1,B,56,3
350310,Bunn Middle,Franklin,Bunn,"4742 NC 39 Hwy S, Bunn, NC 27508",-78.2638106,35.9748707,Franklin County Schools,Bunn Middle,62.9,C,56.4,3
710312,Burgaw Elementary,Pender,Burgaw,"400 North Wright Street, Burgaw, NC 28425",-77.928072,34.556515,Pender County Schools,Burgaw Elementary,90.6,C,50,3
710316,Burgaw Middle,Pender,Burgaw,"500 South Wright Street, Burgaw, NC 28425",-77.9245567,34.5450238,Pender County Schools,Burgaw Middle,88.3,C,52.9,3
120LEA,Burke County Schools,Burke,Morganton,"700 East Parker Road, Morganton, NC 28655",-81.649227,35.7261084,aanomatch,aanomatch,,,,
120310,Burke Middle College,Burke,Morganton,"1001 Burkemont Ave, Morganton, NC 28655",-81.6933526,35.7224938,aanomatch,aanomatch,,,,
230312,Burns High,Cleveland,Lawndale,"307 E Stagecoach Trail, Lawndale, NC 28090",-81.5324944,35.4193649,Cleveland County Schools,Burns High,49.3,C,44.4,3
230316,Burns Middle,Cleveland,Lawndale,"215 Shady Grove Road, Lawndale, NC 28090",-81.5394336,35.4258329,Cleveland County Schools,Burns Middle,59.4,B,65.9,2
995312,Burnsville Elementary,Yancey,Burnsville,"395 Burnsville School Road, Burnsville, NC 28714",-82.2580444,35.917422,Yancey County Schools,Burnsville Elementary,61.5,C,55.4,3
320308,Burton Elementary,Durham,Durham,"1500 Mathison Avenue, Durham, NC 27701",-78.887671,35.979199,Durham Public Schools,Burton Elementary,58.8,C,57.5,3
821304,Butler Avenue Elementary,Sampson,Clinton,"301 Butler Ave, Clinton, NC 28328",-78.317783,34.988611,Clinton City Schools,Butler Avenue Elementary,73.7,C,61.1,2
600361,Butler High,Mecklenburg,Matthews,"1810 Matthews-Mint Hill Rd, Matthews, NC 28105",-80.691217,35.120552,Charlotte-Mecklenburg Schools,Butler High,38.9,B,62.8,2
390311,Butner-Stem Elementary,Granville,Butner,"201 East D St, Butner, NC 27509",-78.7581486,36.1371437,Granville County Schools,Butner-Stem Elementary,72,D,43.3,3
390309,Butner-Stem Middle,Granville,Butner,"501 East D St, Butner, NC 27509",-78.7539691,36.140779,Granville County Schools,Butner-Stem Middle,69.6,D,44.1,3
970310,C B Eller Elementary,Wilkes,Elkin,"1288 CB Eller School Rd, Elkin, NC 28621",-80.889261,36.276196,Wilkes County Schools,C B Eller Elementary School,32.2,B,75,2
130318,C C Griffin Middle,Cabarrus,Concord,"7650 Griffin's Gate Drive, Concord, NC 28025",-80.5876605,35.3087272,Cabarrus County Schools,C C Griffin Middle,50.7,C,55.8,3
320374,C C Spaulding Elementary,Durham,Durham,"1531 S Roxboro Road, Durham, NC 27707",-78.905587,35.977736,Durham Public Schools,C C Spaulding Elementary,74.6,F,25.8,4
970312,C C Wright Elementary,Wilkes,North Wilkesboro,"200 CC Wright School Rd, North Wilkesboro, NC 28659",-81.1052277,36.1380109,Wilkes County Schools,C C Wright Elementary School,46.9,C,55,3
320312,C E Jordan High,Durham,Durham,"6806 Garrett Road, Durham, NC 27707",-78.9620817,35.9232466,Durham Public Schools,C E Jordan High,39.3,C,45.8,3
410458,C Joyner Greene Education Center,Guilford,Jamestown,"604 East Main Street, Jamestown, NC 27282",-79.9164685,35.9959061,aanomatch,aanomatch,,,,
740324,C M Eppes Middle,Pitt,Greenville,"1100 South Elm Street, Greenville, NC 27858",-77.361208,35.599343,Pitt County Schools,C M Eppes Middle,76.6,D,43.4,3
260342,C Wayne Collier Elementary,Cumberland,Hope Mills,"3522 Sturbridge Drive, Hope Mills, NC 28348",-78.9828536,34.9767886,Cumberland County Schools,C Wayne Collier Elementary,54.2,C,52.6,3
390312,C. G. Credle Elementary,Granville,Oxford,"223 College St, Oxford, NC 27565",-78.592472,36.31453,Granville County Schools,C. G. Credle Elementary,78.6,D,45.8,3
13B000,Cabarrus Charter Academy,Cabarrus,Concord,"355 Poplar Crossing Dr NW, Concord, NC 28027",-80.668976,35.4087319,Charter Schools,Cabarrus Charter Academy,36.1,D,47,3
130317,Cabarrus Co Opportunity School,Cabarrus,Concord,"120 Marsh Avenue NW, Concord, NC 28025",-80.590117,35.412021,aanomatch,aanomatch,,,,
130LEA,Cabarrus County Schools,Cabarrus,Concord,"4401 Old Airport Road, Concord, NC 28025",-80.5063172,35.3891011,aanomatch,aanomatch,,,,
130349,Cabarrus Early College of Technology,Cabarrus,Concord,"670 Concord Parkway North, Concord, NC 28027",-80.6141972,35.4177857,Cabarrus County Schools,Cabarrus Early College of Technology,41.1,B,81.2,1
130350,Cabarrus-Kannapolis Early Coll,Cabarrus,Concord,"1531 Trinity Church Rd, Concord, NC 28027",-80.659584,35.4375622,Cabarrus County Schools,Cabarrus-Kannapolis Early Coll,36.6,A,89.3,1
140305,Caldwell Career Cen Mid. Coll.,Caldwell,Hudson,"2857 Hickory Boulevard, Hudson, NC 28638",-81.4851267,35.8555791,Caldwell County Schools,Caldwell Career Cen Mid. Coll.,43.1,A,78.4,2
140LEA,Caldwell County Schools,Caldwell,Lenoir,"1914 Hickory Boulevard SW, Lenoir, NC 28645",-81.5141243,35.8807309,aanomatch,aanomatch,,,,
140309,Caldwell Early College,Caldwell,Hudson,"2859 Hickory Blvd SW, Hudson, NC 28638",-81.4826814,35.8546639,Caldwell County Schools,Caldwell Early College,32.2,A,93.2,1
340326,Caleb's Creek Elementary,Forsyth,Kernersville,"1109 Salem Crossing Rd, Kernersville, NC 27284",-80.0890229,36.078296,Forsyth County Schools,Caleb's Creek Elementary,39.1,B,70.4,2
150304,Camden County High,Camden,Camden,"103 US 158 W, Camden, NC 27921",-76.1710635,36.3283688,Camden County Schools,Camden County High,20.9,B,58,3
150LEA,Camden County Schools,Camden,Camden,"174 NC Hwy 343 N, Camden, NC 27921",-76.182029,36.334572,aanomatch,aanomatch,,,,
150350,Camden Early College High,Camden,Camden,"103-A US Highway 158 West, Camden, NC 27921",-76.1718451,36.32806,Camden County Schools,Camden Early College High,15.2,B,78.8,2
150310,Camden Intermediate,Camden,Camden,"123 Noblitt Drive, Camden, NC 27921",-76.18297,36.33174,Camden County Schools,Camden Intermediate,21.3,C,67.5,2
150312,Camden Middle,Camden,Camden,"248 Scotland Road, Camden, NC 27921",-76.174118,36.361001,Camden County Schools,Camden Middle,25.4,B,65.1,2
630312,Cameron Elementary,Moore,Cameron,"2636 NC Hwy 24 27, Cameron, NC 28326",-79.266216,35.326799,Moore County Schools,Cameron Elementary,61.2,C,59.9,3
680308,Cameron Park Elementary,Orange,Hillsborough,"240 St. Mary's Road, Hillsborough, NC 27278",-79.093934,36.076622,Orange County Schools,Cameron Park Elementary,40.3,B,63.4,2
110324,Candler Elementary,Buncombe,Candler,"121 Candler School Road, Candler, NC 28715",-82.7009881,35.5389136,Buncombe County Schools,Candler Elementary,44.2,C,50.9,3
620312,Candor Elementary,Montgomery,Candor,"414 S Main, Candor, NC 27229",-79.747046,35.290075,Montgomery County Schools,Candor Elementary,90.1,C,51.5,3
110326,Cane Creek Middle,Buncombe,Fletcher,"570 Lower Brush Creek Road, Fletcher, NC 28732",-82.4362091,35.482339,Buncombe County Schools,Cane Creek Middle,32.2,B,71.1,2
995316,Cane River Middle,Yancey,Burnsville,"1128 Cane River School Road, Burnsville, NC 28714",-82.3776488,35.9122092,Yancey County Schools,Cane River Middle,52.7,C,61.3,2
440320,Canton Middle,Haywood,Canton,"60 Penland St, Canton, NC 28716",-82.8422041,35.5269946,Haywood County Schools,Canton Middle,59.3,C,55.5,3
65A000,Cape Fear Center for Inquiry,New Hanover,Wilmington,"2525 Wonder Way, Wilmington, NC 28401",-77.930582,34.193153,Charter Schools,Cape Fear Center for Inquiry,21.4,B,74.2,2
710318,Cape Fear Elementary,Pender,Rocky Point,"1882 NC Hwy 133, Rocky Point, NC 28457",-77.9166413,34.4066433,Pender County Schools,Cape Fear Elementary,80.9,C,59.7,3
260325,Cape Fear High,Cumberland,Fayetteville,"4762 Clinton Road, Fayetteville, NC 28301",-78.7637348,35.0343853,Cumberland County Schools,Cape Fear High,50.6,B,62.6,2
710320,Cape Fear Middle,Pender,Rocky Point,"1886 NC Hwy 133, Rocky Point, NC 28457",-77.9162638,34.4058593,Pender County Schools,Cape Fear Middle,78.3,C,48.4,3
280302,Cape Hatteras Elementary School,Dare,Buxton,"47500 Middle Ridge, Buxton, NC 27920",-75.550493,35.258813,Dare County Schools,Cape Hatteras Elementary School,65.7,B,70.1,2
280304,Cape Hatteras Secondary School,Dare,Buxton,"48576 Highway 12, Buxton, NC 27920",-75.55224,35.2656064,Dare County Schools,Cape Hatteras Secondary School,49.4,B,65.1,2
92W000,Cardinal Charter Academy,Wake,Cary,"1020 St. Charles Place, Cary, NC 27513",-78.7810464,35.8015304,Charter Schools,Cardinal Charter Academy,14.1,B,73.3,2
490310,Career Academy and Technical School,Iredell,Troutman,"350 Old Murdock Rd, Troutman, NC 28166",-80.887285,35.714622,Iredell-Statesville Schools,Career Academy and Technical School,6.3,C,43,3
340332,Career Center,Forsyth,Winston Salem,"910 Highland Court, Winston Salem, NC 27101",-80.2345047,36.1066571,aanomatch,aanomatch,,,,
650355,Career Readiness Academy at Mosley PLC,New Hanover,Wilmington,"3702 Princess Place Drive, Wilmington, NC 28405",-77.900543,34.243048,aanomatch,aanomatch,,,,
10311,Career Technical Education Center,Alamance,Burlington,"2550 Buckingham Road, Burlington, NC 27217",-79.3842715,36.0923163,aanomatch,aanomatch,,,,
130321,Carl A Furr Elementary,Cabarrus,Concord,"2725 Clover Road, Concord, NC 28027",-80.6855602,35.3769856,Cabarrus County Schools,Carl A Furr Elementary,53.3,C,63.6,2
600333,Carmel Middle,Mecklenburg,Charlotte,"5001 Camilla Dr, Charlotte, NC 28226",-80.8043838,35.1288354,Charlotte-Mecklenburg Schools,Carmel Middle,37.9,B,65.6,2
920356,Carnage Middle,Wake,Raleigh,"1425 Carnage Dr, Raleigh, NC 27610",-78.6282881,35.761925,Wake County Schools,Carnage Middle,37.8,B,67,2
650308,Carolina Beach Elementary,New Hanover,Carolina Beach,"400 South 4th St, Carolina Beach, NC 28428",-77.9000504,34.0309271,New Hanover County Schools,Carolina Beach Elementary,38,B,76.8,2
670310,Carolina Forest Elementary,Onslow,Jacksonville,"141 Carolina Forest Boulevard, Jacksonville, NC 28546",-77.409274,34.811427,Onslow County Schools,Carolina Forest Elementary,39.7,C,65.1,2
13A000,Carolina International School,Cabarrus,Concord,"9545 Poplar Tent Road, Concord, NC 28027",-80.7366426,35.4093568,Charter Schools,Carolina International School,14.9,C,57.8,3
920358,Carpenter Elementary,Wake,Cary,"2100 Morrisville Parkway, Cary, NC 27519",-78.8669561,35.8143834,Wake County Schools,Carpenter Elementary,20.8,B,73.5,2
360344,Carr Elementary,Gaston,Dallas,"307 S Pine St, Dallas, NC 28034",-81.1835776,35.3128577,Gaston County Schools,Carr Elementary,47.8,C,58.7,3
681304,Carrboro Elementary,Orange,Carrboro,"400 Shelton St, Carrboro, NC 27510",-79.0781938,35.9143499,Chapel Hill-Carrboro Schools,Carrboro Elementary,31.9,B,75.4,2
681305,Carrboro High,Orange,Carrboro,"201 Rock Haven Rd, Carrboro, NC 27510",-79.085512,35.8917753,Chapel Hill-Carrboro Schools,Carrboro High,24.3,B,71.6,2
920360,Carroll Middle,Wake,Raleigh,"4520 Six Forks Rd, Raleigh, NC 27609",-78.6416877,35.84308,Wake County Schools,Carroll Middle,46.9,C,54.3,3
800361,Carson High,Rowan,China Grove,"290 Kress Venture Dr, China Grove, NC 28023",-80.5437594,35.5662693,Rowan-Salisbury Schools,Carson High,40.5,B,52.2,3
32C000,Carter Community Charter,Durham,Durham,"1955 West Cornwallis Road, Durham, NC 27705",-78.955472,35.9812192,Charter Schools,Carter Community Charter,69.5,D,33.1,4
34D000,Carter G Woodson School,Forsyth,Winston-Salem,"437 Goldfloss Street, Winston-Salem, NC 27127",-80.2304324,36.0675488,Charter Schools,Carter G Woodson School,67.3,F,26.3,4
340336,Carter High School,Forsyth,Winston Salem,"851 Highland Court, Winston Salem, NC 27101",-80.234748,36.107214,aanomatch,aanomatch,,,,
160LEA,Carteret County Public Schools,Carteret,Beaufort,"107 Safrit Drive, Beaufort, NC 28516",-76.6497359,34.7176112,aanomatch,aanomatch,,,,
630316,Carthage Elementary,Moore,Carthage,"312 Rockingham St, Carthage, NC 28327",-79.4164959,35.3409267,Moore County Schools,Carthage Elementary,57.3,B,61.2,2
560304,Cartoogechaye Elementary,Macon,Franklin,"3295 Old Murphy Road, Franklin, NC 28734",-83.434981,35.1668258,Macon County Schools,Cartoogechaye Elementary,55,C,60.5,2
910308,"Carver Elementary, Henderson",Vance,Henderson,"987 Carver Sch Rd, Henderson, NC 27537",-78.3233215,36.3684421,Vance County Schools,Carver Elementary,67.6,C,51.6,3
960316,"Carver Elementary, Mount Olive",Wayne,Mount Olive,"400 Old Seven Springs Rd, Mount Olive, NC 28365",-78.0528371,35.2005956,Wayne County Public Schools,Carver Elementary,79.3,D,42.5,3
920362,"Carver Elementary, Wendell",Wake,Wendell,"291 Liles-Dean Rd, Wendell, NC 27591",-78.3868784,35.7908556,Wake County Schools,Carver Elementary,63.8,C,51.6,3
960318,Carver Heights Elementary,Wayne,Goldsboro,"411 Bunche Drive, Goldsboro, NC 27530",-77.9962183,35.3669685,Wayne County Public Schools,Carver Heights Elementary,91.4,D,27.7,4
340330,Carver High,Forsyth,Winston Salem,"3545 Carver School Road, Winston Salem, NC 27105",-80.2071071,36.1342371,Forsyth County Schools,Carver High,69.2,D,24.3,4
830304,Carver Middle,Scotland,Laurel Hill,"18601 Fieldcrest Road, Laurel Hill, NC 28351",-79.5202088,34.8207073,Scotland County Schools,Carver Middle,75.2,D,47.3,3
920364,Cary Elementary,Wake,Cary,"400 Kildaire Farm Road, Cary, NC 27511",-78.781135,35.781504,Wake County Schools,Cary Elementary,36.9,C,67,2
920368,Cary High,Wake,Cary,"638 Walnut St, Cary, NC 27511",-78.766249,35.7718455,Wake County Schools,Cary High,28.6,C,56.1,3
92R000,Casa Esperanza Montessori Charter School,Wake,Raleigh,"2600 Sumner Blvd #130, Raleigh, NC 27616",-78.5905166,35.8727752,Charter Schools,Casa Esperanza Montessori Charter School,7.4,C,63.4,2
230320,Casar Elementary,Cleveland,Casar,"436 Schoolhouse Road, Casar, NC 28020",-81.6200248,35.5072683,Cleveland County Schools,Casar Elementary,51.7,B,70.5,2
340334,Cash Elementary,Forsyth,Kernersville,"4700 Old Hollow Road, Kernersville, NC 27284",-80.123116,36.136284,Forsyth County Schools,Cash Elementary,43.4,B,65.6,2
650309,Castle Hayne Elementary,New Hanover,Castle Hayne,"3925 Roger Haynes Drive, Castle Hayne, NC 28429",-77.8914786,34.3509008,New Hanover County Schools,Castle Hayne Elementary,62.2,C,58.7,3
170LEA,Caswell County Schools,Caswell,YANCEYVILLE,"319 East Main Street, YANCEYVILLE, NC 27379",-79.3303372,36.4046876,aanomatch,aanomatch,,,,
50Z000,Catamount School,Jackson,Sylva,"100 Smoky Mountain Dr, Sylva, NC 28779",-83.199302,35.3535224,Lab Schools,Catamount School,45.5,D,46.4,3
180LEA,Catawba County Schools,Catawba,Newton,"2285 North Anderson Avenue, Newton, NC 28658",-81.2173056,35.6863169,aanomatch,aanomatch,,,,
180324,Catawba Elementary School,Catawba,Catawba,"5415 Hudson Chapel Road, Catawba, NC 28609",-81.072858,35.696428,Catawba County Schools,Catawba Elementary School,66.1,C,51,3
360348,Catawba Heights Elementary,Gaston,Belmont,"101 Ivey Street, Belmont, NC 28012",-81.0368379,35.2746044,Gaston County Schools,Catawba Heights Elementary,55,C,58.2,3
180323,Catawba Rosenwald Education Center,Catawba,Catawba,"403 6th Ave SW, Catawba, NC 28609",-81.075758,35.702671,aanomatch,aanomatch,,,,
550314,Catawba Springs Elementary,Lincoln,Denver,"206 North Little Egypt Rd, Denver, NC 28037",-81.0212026,35.455777,Lincoln County Schools,Catawba Springs Elementary,27.4,B,80.9,1
600334,Cato Middle College High,Mecklenburg,Charlotte,"8120 Grier Rd Suite 171-B, Charlotte, NC 28215",-80.7310996,35.265033,aanomatch,aanomatch,,,,
240373,CCCA - Fair Bluff /Southeastern Campuses,Columbus,Whiteville,"4564 Chadbourn Hwy, Whiteville, NC 28472",-78.7823042,34.3318286,Columbus County Schools,CCCA - Fair Bluff /Southeastern Campuses,65.2,B,63.1,2
410349,Ceasar Cone Elementary,Guilford,Greensboro,"2501 North Church Street, Greensboro, NC 27405",-79.7813281,36.1080744,Guilford County Schools,Ceasar Cone Elementary,82,F,26,4
350312,Cedar Creek Middle,Franklin,Youngsville,"2228 Cedar Creek Road, Youngsville, NC 27596",-78.4500675,36.0406805,Franklin County Schools,Cedar Creek Middle,52.9,C,52.8,3
920369,Cedar Fork Elementary,Wake,Morrisville,"1050 Town Hall Drive, Morrisville, NC 27560",-78.8394928,35.8367119,Wake County Schools,Cedar Fork Elementary,10.1,A,86,1
640316,Cedar Grove Elementary,Nash,Nashville,"8967 Cedar Grove Sch Loop Road, Nashville, NC 27856",-77.9687033,36.078599,Nash-Rocky Mount Schools,Cedar Grove Elementary,52.4,C,50.5,3
100309,Cedar Grove Middle,Brunswick,Supply,"750 Grove Trail SW, Supply, NC 28462",-78.270573,33.9666753,Brunswick County Schools,Cedar Grove Middle,75.5,C,50.9,3
860302,Cedar Ridge Elementary,Surry,Lowgap,"734 Flippin Road, Lowgap, NC 27024",-80.80008,36.508659,Surry County Schools,Cedar Ridge Elementary,70,C,60.3,2
680310,Cedar Ridge High,Orange,Hillsborough,"1125 New Grady Brown Sch Rd, Hillsborough, NC 27278",-79.1264455,36.0535062,Orange County Schools,Cedar Ridge High,33.3,B,67,2
490312,Celeste Henkel Elementary,Iredell,Statesville,"1503 Old Mountain Road, Statesville, NC 28677",-80.9756552,35.7551936,Iredell-Statesville Schools,Celeste Henkel Elementary,59.8,C,61,2
920370,Centennial Campus Middle,Wake,Raleigh,"1900 Main Campus Drive, Raleigh, NC 27606",-78.6876185,35.7585717,Wake County Schools,Centennial Campus Middle,53.5,D,46.5,3
390314,Center For Innovative Learning,Granville,Oxford,"204 Taylor St, Oxford, NC 27565",-78.5860056,36.3176444,aanomatch,aanomatch,,,,
900366,Central Academy of Technology and Arts,Union,Monroe,"600 Brewer Dr, Monroe, NC 28112",-80.5674519,34.9719351,Union County Public Schools,Central Academy of Technology and Arts,15,A,94.6,1
130310,Central Cabarrus High,Cabarrus,Concord,"505 Hwy 49 S, Concord, NC 28025",-80.582118,35.362003,Cabarrus County Schools,Central Cabarrus High,43.7,B,58.3,3
290308,Central Davidson High,Davidson,Lexington,"2747 NC Hwy 47, Lexington, NC 27292",-80.2218055,35.7397635,Davidson County Schools,Central Davidson High,36.7,B,50.4,3
290309,Central Davidson Middle,Davidson,Lexington,"2591 NC Hwy 47, Lexington, NC 27292",-80.2242695,35.7413168,Davidson County Schools,Central Davidson Middle,55.3,C,60,2
300306,Central Davie Academy,Davie,Mocksville,"160 Martin Luther King Jr. Road, Mocksville, NC 27028",-80.5525793,35.9069756,aanomatch,aanomatch,,,,
840310,"Central Elementary, Albemarle",Stanly,Albemarle,"206 N 3rd Street, Albemarle, NC 28001",-80.195563,35.3541049,Stanly County Schools,Central Elementary,56.8,D,39.2,4
270304,"Central Elementary, Barco",Currituck,Barco,"504 Shortcut Road, Barco, NC 27917",-76.0091482,36.3895735,Currituck County Schools,Central Elementary,45.4,C,59.7,3
790310,"Central Elementary, Eden",Rockingham,Eden,"435 E Stadium Dr, Eden, NC 27288",-79.730385,36.504803,Rockingham County Schools,Central Elementary,53.8,C,60.9,2
700306,"Central Elementary, Elizabeth City",Pasquotank,Elizabeth City,"1059 US Hwy 17, Elizabeth City, NC 27909",-76.2629148,36.2885042,Pasquotank County Schools,Central Elementary,56.2,C,60.4,2
680312,"Central Elementary, Hillsborough",Orange,Hillsborough,"154 Hayes St, Hillsborough, NC 27278",-79.114831,36.0800137,Orange County Schools,Central Elementary,70.1,D,41.1,3
660306,"Central Elementary, Jackson",Northampton,Jackson,"9742 NC Hwy 305, Jackson, NC 27845",-77.434285,36.418549,Northampton County Schools,Central Elementary,75.8,D,46.3,3
490316,"Central Elementary, Statesville",Iredell,Statesville,"4083 Wilkesboro Hwy, Statesville, NC 28625",-80.9620769,35.927132,Iredell-Statesville Schools,Central Elementary,33.8,A,83.3,1
440326,Central Haywood High,Haywood,Clyde,"3215 Broad Street, Clyde, NC 28721",-82.9127665,35.534506,aanomatch,aanomatch,,,,
370308,Central Middle School,Gates,Gatesville,"362 US Hwy 158 W, Gatesville, NC 27938",-76.7274762,36.4364316,Gates County Schools,Central Middle School,49,C,55.6,3
860306,"Central Middle, Dobson",Surry,Dobson,"883 Zephyr Rd, Dobson, NC 27017",-80.7345207,36.3958614,Surry County Schools,Central Middle,68.9,C,61.3,2
241304,"Central Middle, Whiteville",Columbus,Whiteville,"310 S Martin L King Jr Ave, Whiteville, NC 28472",-78.7097374,34.3269383,Whiteville City Schools,Central Middle,76.8,C,66.8,2
32K000,Central Park School For Child,Durham,Durham,"724 Foster Street, Durham, NC 27701",-78.9009536,36.0045814,Charter Schools,Central Park School For Child,29.6,B,65.4,2
93L000,Central Wake Charter High,Wake,Raleigh,"1425 Rock Quarry Road, Raleigh, NC 27610",-78.6131528,35.7618481,aanomatch,aanomatch,,,,
970315,Central Wilkes Middle,Wilkes,Moravian Falls,"3541 South NC Hwy 16, Moravian Falls, NC 28654",-81.1772475,36.0940357,Wilkes County Schools,Central Wilkes Middle School,40.6,C,59.9,3
240328,Cerro Gordo Elementary,Columbus,Cerro Gordo,"7685 Andrew Jackson Hwy, Cerro Gordo, NC 28430",-78.9312993,34.3289789,Columbus County Schools,Cerro Gordo Elementary,71.3,C,57.9,3
240332,Chadbourn Elementary,Columbus,Chadbourn,"409 E Third Avenue, Chadbourn, NC 28431",-78.8215184,34.3258017,Columbus County Schools,Chadbourn Elementary,91.3,D,47.7,3
240330,Chadbourn Middle,Columbus,Chadbourn,"801 W Smith Street, Chadbourn, NC 28431",-78.835791,34.315773,aanomatch,aanomatch,,,,
180325,Challenger Early College High,Catawba,Hickory,"2550 Hwy 70 SE, Hickory, NC 28602",-81.2879271,35.6998273,Catawba County Schools,Challenger Early College High,37,A,>95,1
421306,Chaloner Middle School,Halifax,Roanoke Rapids,"2100 Virginia Avenue, Roanoke Rapids, NC 27870",-77.6596078,36.4410516,Roanoke Rapids City Schools,Chaloner Middle School,64.8,C,57.1,3
600336,Chantilly Montessori,Mecklenburg,Charlotte,"701 Briar Creek Rd, Charlotte, NC 28205",-80.800515,35.2077839,Charlotte-Mecklenburg Schools,Chantilly Montessori,13.4,B,81.8,1
360352,Chapel Grove Elementary,Gaston,Gastonia,"5201 Lewis Road, Gastonia, NC 28052",-81.2491912,35.2076813,Gaston County Schools,Chapel Grove Elementary,50.5,C,46.2,3
681308,Chapel Hill High,Orange,Chapel Hill,"1709 High School Rd, Chapel Hill, NC 27516",-79.0799519,35.945848,Chapel Hill-Carrboro Schools,Chapel Hill High,20.3,A,79.8,2
681LEA,Chapel Hill-Carrboro Schools,Orange,Chapel Hill,"750 S Merritt Mill Rd, Chapel Hill, NC 27516",-79.067636,35.903367,aanomatch,aanomatch,,,,
960324,Charles B Aycock High,Wayne,Pikeville,"5460 US 117 North, Pikeville, NC 27863",-77.9790035,35.5094989,Wayne County Public Schools,Charles B Aycock High,42.1,C,54,3
130325,Charles E Boger Elementary,Cabarrus,Kannapolis,"5150 Dove Field Lane, Kannapolis, NC 28081",-80.6618716,35.4550287,Cabarrus County Schools,Charles E Boger Elementary,40.3,B,64.8,2
291308,Charles England Elementary School,Davidson,Lexington,"111 Cornelia Dr, Lexington, NC 27292",-80.239189,35.8171558,Lexington City Schools,Charles England Elementary School,65.5,C,43.3,3
980317,Charles H Darden Middle,Wilson,Wilson,"1665 Lipscomb Road, Wilson, NC 27893",-77.8835221,35.7198202,Wilson County Schools,Charles H Darden Middle,63.3,C,42.5,3
180326,Charles H Tuttle Elementary,Catawba,Maiden,"2872 Water Plant Road, Maiden, NC 28650",-81.157767,35.588884,Catawba County Schools,Charles H Tuttle Elementary,47.6,C,64.1,2
650310,Charles P Murray Middle,New Hanover,Wilmington,"655 Halyburton Memorial Parkwy, Wilmington, NC 28412",-77.9075709,34.0985243,New Hanover County Schools,Charles P Murray Middle,37.6,B,78.7,2
761320,Charles W McCrary Elementary,Randolph,Asheboro,"400 Ross St, Asheboro, NC 27203",-79.8180288,35.7128176,Asheboro City Schools,Charles W McCrary Elementary,88.4,C,46.6,3
680316,Charles W Stanford Middle,Orange,Hillsborough,"308 Orange High Rd, Hillsborough, NC 27278",-79.0955044,36.0893216,Orange County Schools,Charles W Stanford Middle,30.7,C,63.8,2
60P000,Charlotte Choice Charter,Mecklenburg,Charlotte,"3118 Milton Road, Suite A, Charlotte, NC 28215",-80.7366961,35.2348691,Charter Schools,Charlotte Choice Charter,79.1,F,27.9,4
600303,Charlotte East Language Academy,Mecklenburg,Charlotte,,,,Charlotte-Mecklenburg Schools,Charlotte East Language Academy,57,D,41.2,3
600567,Charlotte Engineering Early College-UNCC,Mecklenburg,Charlotte,"9000 Robert Snyder Rd, Charlotte, NC 28262",-80.7440543,35.3089121,Charlotte-Mecklenburg Schools,Charlotte Engineering Early College-UNCC,28.9,A,86.4,1
61M000,Charlotte Lab School,Mecklenburg,Charlotte,"301 E 9th Street, Charlotte, NC 28202",-80.8349244,35.2291916,Charter Schools,Charlotte Lab School,9,B,68.9,2
60V000,Charlotte Learning Academy,Mecklenburg,Charlotte,"800 Briar Creek Rd., DD400, Charlotte, NC 28205",-80.7976804,35.2072338,Charter Schools,Charlotte Learning Academy,52.5,F,17.3,5
60K000,Charlotte Secondary,Mecklenburg,Charlotte,"8601 McAlpine Park Dr, Charlotte, NC 28211",-80.7488965,35.1519449,Charter Schools,Charlotte Secondary,28,C,42.3,3
600569,Charlotte Teacher Early College,Mecklenburg,Charlotte,"9201 University City Blvd, Charlotte, NC 28223",-80.7353002,35.3058818,Charlotte-Mecklenburg Schools,Charlotte Teacher Early College,36,B,87,1
600LEA,Charlotte-Mecklenburg Schools,Mecklenburg,Charlotte,"Charlotte-Mecklenburg Gov Center, 600 East Fourth Street, 5th Floor, Charlotte, NC 28202",-80.8393449,35.2216474,aanomatch,aanomatch,,,,
10A000,Charter Day School,Brunswick,Leland,"7055 Bacon's Way, Leland, NC 28451",-78.1361514,34.2831272,Charter Schools,Charter Day School,34.6,B,73,2
810324,Chase High School,Rutherford,Forest City,"1603 Chase High Rd, Forest City, NC 28043",-81.8430129,35.2502768,Rutherford County Schools,Chase High School,30.4,B,58.2,3
810326,Chase Middle School,Rutherford,Forest City,"840 Chase High Rd, Forest City, NC 28043",-81.844647,35.2691918,Rutherford County Schools,Chase Middle School,39,C,61.5,2
190316,Chatham Central High,Chatham,Bear Creek,"14950 NC Hwy 902 W, Bear Creek, NC 27207",-79.3899336,35.6139426,Chatham County Schools,Chatham Central High,37.3,B,55.8,3
19A000,Chatham Charter,Chatham,Siler City,"2200 Hamp Stone Rd, Siler City, NC 27344",-79.4809351,35.742891,Charter Schools,Chatham Charter,14.9,B,73,2
190LEA,Chatham County Schools,Chatham,Pittsboro,"369 West St, Pittsboro, NC 27312",-79.183995,35.7198578,aanomatch,aanomatch,,,,
190312,Chatham Middle,Chatham,Siler City,"2025 South 2nd Avenue Ext, Siler City, NC 27344",-79.4481623,35.7088641,Chatham County Schools,Chatham Middle,87.2,D,43.5,3
190501,Chatham School of Science & Engineering,Chatham,Siler City,"501 Martin Luther King Jr Blvd, Siler City, NC 27344",-79.4606651,35.7313745,Chatham County Schools,Chatham School of Science & Engineering,15,A,90.2,1
200LEA,Cherokee County Schools,Cherokee,Murphy,"911 Andrews Road, Murphy, NC 28906",-84.0200057,35.1019261,aanomatch,aanomatch,,,,
360364,Cherryville Elementary,Gaston,Cherryville,"700 East Academy Street, Cherryville, NC 28021",-81.370862,35.378286,Gaston County Schools,Cherryville Elementary,59.4,B,78.5,2
360360,Cherryville High,Gaston,Cherryville,"313 Ridge Avenue, Cherryville, NC 28021",-81.3807788,35.3900913,Gaston County Schools,Cherryville High,47.3,B,66.4,2
120304,Chesterfield Elementary,Burke,Morganton,"2142 Pax Hill Road, Morganton, NC 28655",-81.664219,35.810571,aanomatch,aanomatch,,,,
850304,Chestnut Grove Middle,Stokes,King,"2185 Chestnut Grove Road, King, NC 27021",-80.3749992,36.3201653,Stokes County Schools,Chestnut Grove Middle,44.9,C,57.4,3
740332,Chicod,Pitt,Greenville,"3833 Stokestown-St. John Road, Greenville, NC 27858",-77.2713726,35.4651896,Pitt County Schools,Chicod,33,B,78.9,2
550340,Childers Elementary,Lincoln,Lincolnton,"2595 Rock Dam Road, Lincolnton, NC 28092",-81.316265,35.480428,Lincoln County Schools,Childers Elementary,59.9,C,56.3,3
340344,Childrens Center,Forsyth,Winston Salem,"2315 Coliseum Drive, Winston Salem, NC 27106",-80.2789968,36.1173005,aanomatch,aanomatch,,,,
54A000,Children's Village Academy,Lenoir,Kinston,"701 North Adkin Street, Kinston, NC 28501",-77.5671434,35.2667229,Charter Schools,Children's Village Academy,91.3,F,27.8,4
800316,China Grove Elementary,Rowan,China Grove,"514 South Franklin St, China Grove, NC 28023",-80.5857641,35.5673252,Rowan-Salisbury Schools,China Grove Elementary,35.7,D,42.9,3
800320,China Grove Middle,Rowan,China Grove,"1013 North Main St, China Grove, NC 28023",-80.5697828,35.5775297,Rowan-Salisbury Schools,China Grove Middle,47.5,C,49.3,3
310330,Chinquapin Elementary,Duplin,Chinquapin,"3894 NC 50 South, Chinquapin, NC 28521",-78.4955578,35.3564721,Duplin County Schools,Chinquapin Elementary,60.5,C,60.8,2
70325,Chocowinity Middle,Beaufort,Chocowinity,"3831 US HWY 17 S, Chocowinity, NC 27817",-77.1007959,35.5098445,Beaufort County Schools,Chocowinity Middle,65.1,C,56.4,3
70326,Chocowinity Primary,Beaufort,Chocowinity,"606 Gray Road, Chocowinity, NC 27817",-77.0946226,35.4980489,Beaufort County Schools,Chocowinity Primary,66.6,B,69.8,2
210304,Chowan Middle,Chowan,Tyner,"2845 Virginia Road, Tyner, NC 27980",-76.6565,36.232703,Edenton-Chowan Schools,Chowan Middle,65.9,C,54.9,3
290312,Churchland Elementary,Davidson,Lexington,"7571 S NC Hwy 150, Lexington, NC 27295",-80.4158746,35.78505,Davidson County Schools,Churchland Elementary,61.3,C,56.7,3
78A000,CIS Academy,Robeson,Pembroke,"818 West 3rd Street, Pembroke, NC 28372",-79.2037479,34.6864203,Charter Schools,CIS Academy,76.7,C,50.8,3
640342,CITI High School,Nash maybe,,,,,Nash-Rocky Mount Schools,CITI High School,83.3,F,<5,1
320317,City of Medicine Academy,Durham,Durham,"301 Crutchfield Road, Durham, NC 27704",-78.9023459,36.03825,Durham Public Schools,City of Medicine Academy,56.3,A,86.1,1
410514,Clara J Peck Elementary,Guilford,Greensboro,"1601 West Florida Street, Greensboro, NC 27403",-79.8176267,36.0512123,Guilford County Schools,Clara J Peck Elementary,78,D,36,4
180332,Claremont Elementary,Catawba,Claremont,"3384 E Main Street, Claremont, NC 28610",-81.1419061,35.7176915,Catawba County Schools,Claremont Elementary,66.7,C,53.9,3
910311,Clarke Elementary,Vance,Henderson,"309 Mount Carmel Church Road, Henderson, NC 27537",-78.3687998,36.2991703,Vance County Schools,Clarke Elementary,72.7,C,51.6,3
90320,Clarkton School of Discovery,Bladen,Clarkton,"10000 North College Street, Clarkton, NC 28433",-78.6535959,34.4945624,Bladen County Schools,Clarkton School of Discovery,71.2,C,53.1,3
111312,"Claxton Elementary, Asheville",Buncombe,Asheville,"241 Merrimon Avenue, Asheville, NC 28801",-82.553409,35.607753,Asheville City Schools,Claxton Elementary,36.2,C,64.8,2
410343,"Claxton Elementary, Greensboro",Guilford,Greensboro,"3720 Pinetop Road, Greensboro, NC 27410",-79.8613675,36.1116165,Guilford County Schools,Claxton Elementary,35.1,B,69.1,2
220LEA,Clay County Schools,Clay,Hayesville,"154 Yellow Jacket Drive, Hayesville, NC 28904",-83.8162763,35.040159,aanomatch,aanomatch,,,,
510324,Clayton High,Johnston,Clayton,"600 S Fayetteville St, Clayton, NC 27520",-78.4653372,35.649933,Johnston County Schools,Clayton High,26.6,C,57.4,3
510412,Clayton Middle,Johnston,Clayton,"490 Guy Rd, Clayton, NC 27520",-78.4851543,35.6449995,Johnston County Schools,Clayton Middle,44.8,D,44.3,3
600338,"Clear Creek Elementary, Charlotte",Mecklenburg,Charlotte,"13501 Albemarle Rd, Charlotte, NC 28227",-80.6251468,35.2237822,Charlotte-Mecklenburg Schools,Clear Creek Elementary,53.9,C,55.2,3
450307,"Clear Creek Elementary, Hendersonville",Henderson,Hendersonville,"737 N Clear Creek Road, Hendersonville, NC 28792",-82.4411685,35.3737621,Henderson County Schools,Clear Creek Elementary,62.4,B,70.9,2
995320,Clearmont Elementary,Yancey,Burnsville,"1175 Clearmont School Road, Burnsville, NC 28714",-82.298263,35.976992,Yancey County Schools,Clearmont Elementary,45,C,61.8,2
820320,Clement Elementary,Sampson,Autryville,"3220 Maxwell Rd, Autryville, NC 28318",-78.5895169,35.1052268,Sampson County Schools,Clement Elementary,61.2,B,86.9,1
340348,Clemmons Elementary,Forsyth,Clemmons,"6200 Bingham Avenue, Clemmons, NC 27012",-80.3764121,36.0247985,Forsyth County Schools,Clemmons Elementary,21,A,86.4,1
340350,Clemmons Middle School,Forsyth,Winston-Salem,"3785 Fraternity Church Road, Winston-Salem, NC 27127",-80.3368651,36.027137,Forsyth County Schools,Clemmons Middle School,48.2,B,65.9,2
230LEA,Cleveland County Schools,Cleveland,Shelby,"400 West Marion Street, Shelby, NC 28150",-81.5456729,35.2930369,aanomatch,aanomatch,,,,
230322,Cleveland ECHS,Cleveland,Shelby,"1800 E. Marion Street, Shelby, NC 28152",-81.4900083,35.2780759,Cleveland County Schools,Cleveland ECHS,46.7,A,89.2,1
510328,"Cleveland Elementary, Clayton",Johnston,Clayton,"10225 Cleveland Rd, Clayton, NC 27520",-78.542261,35.578121,Johnston County Schools,Cleveland Elementary,26.9,B,72.4,2
800324,"Cleveland Elementary, Cleveland",Rowan,Cleveland,"107 School St, Cleveland, NC 27013",-80.68115,35.729101,aanomatch,aanomatch,,,,
510327,Cleveland High,Johnston,Clayton,"1892 Polenta Rd, Clayton, NC 27520",-78.4995228,35.5536479,Johnston County Schools,Cleveland High,24.6,B,65.1,2
510329,Cleveland Middle,Johnston,Garner,"2323 Cornwallis Road, Garner, NC 27529",-78.549963,35.575294,Johnston County Schools,Cleveland Middle,21.8,B,65.1,2
260338,Cliffdale Elementary,Cumberland,Fayetteville,"6450 Cliffdale Road, Fayetteville, NC 28304",-78.9950832,35.0590604,Cumberland County Schools,Cliffdale Elementary,75.2,C,48,3
810328,Cliffside Elementary School,Rutherford,Cliffside,"4016 US Hwy 221-A, Cliffside, NC 28024",-81.7684909,35.2469642,Rutherford County Schools,Cliffside Elementary School,47.9,B,72.4,2
821LEA,Clinton City Schools,Sampson,Clinton,"300 Westover Rd, Clinton, NC 28328",-78.332949,34.9902127,aanomatch,aanomatch,,,,
821308,Clinton High,Sampson,Clinton,"340 Indian Town Road, Clinton, NC 28328",-78.330267,34.9718613,Clinton City Schools,Clinton High,54.2,C,49.5,3
01C000,Clover Garden,Alamance,Burlington,"2454 Altamhaw Union Ridge Road, Burlington, NC 27217",-79.4715982,36.1870915,Charter Schools,Clover Garden,11,B,66.3,2
490319,Cloverleaf Elementary,Iredell,Statesville,"300 James Farm Rd, Statesville, NC 28625",-80.862627,35.8233,Iredell-Statesville Schools,Cloverleaf Elementary,64.2,D,37.1,4
320318,Club Boulevard Elementary,Durham,Durham,"400 W Club Boulevard, Durham, NC 27704",-78.897085,36.019031,Durham Public Schools,Club Boulevard Elementary,57.4,C,55.4,3
180336,Clyde Campbell Elementary,Catawba,Hickory,"2121 35th Avenue Drive NE, Hickory, NC 28601",-81.2874531,35.7779867,Catawba County Schools,Clyde Campbell Elementary,42.3,C,61,2
440328,Clyde Elementary,Haywood,Clyde,"4182 Old Clyde Road, Clyde, NC 28721",-82.895069,35.5327656,Haywood County Schools,Clyde Elementary,46.2,B,65.4,2
670312,Clyde Erwin Elementary,Onslow,Jacksonville,"323 New River Dr, Jacksonville, NC 28540",-77.412415,34.7559065,Onslow County Schools,Clyde Erwin Elementary,73.3,D,36.6,4
65F000,Coastal Preparatory Academy,New Hanover,Wilmington,"1135 Pandion Dr, Wilmington, NC 28411",-77.7671752,34.312321,Charter Schools,Coastal Preparatory Academy,16.4,C,53.9,3
430328,Coats Elementary,Harnett,Coats,"585 Brick Mill Road, Coats, NC 27521",-78.6799605,35.4004815,Harnett County Schools,Coats Elementary,64.3,C,52.3,3
430330,Coats-Erwin Middle,Harnett,Dunn,"2833 NC Hwy 55E, Dunn, NC 28334",-78.660709,35.373132,Harnett County Schools,Coats-Erwin Middle,64.1,C,58.7,3
600341,Cochrane Collegiate Academy,Mecklenburg,Charlotte,"6200 Starhaven Dr, Charlotte, NC 28215",-80.7503253,35.2461762,Charlotte-Mecklenburg Schools,Cochrane Collegiate Academy,50.5,D,32.1,4
490318,Coddle Creek Elementary,Iredell,Mooresville,"141 Frank's Crossing Loop, Mooresville, NC 28115",-80.8123799,35.5176781,Iredell-Statesville Schools,Coddle Creek Elementary,22,B,67.9,2
330312,Coker-Wimberly Elementary,Edgecombe,Battleboro,"1619 NC 97 West, Battleboro, NC 27809",-77.6042147,35.9769077,Edgecombe County Public School,Coker-Wimberly Elementary,61.2,D,32,4
80360,Colerain Elementary,Bertie,Colerain,"202 N Academy Street, Colerain, NC 27924",-76.7710699,36.1994918,Bertie County Schools,Colerain Elementary,66.3,C,50,3
760316,Coleridge Elementary,Randolph,Ramseur,"4528 NC Hwy 22 South, Ramseur, NC 27316",-79.6177607,35.6444468,Randolph County Schools,Coleridge Elementary,64.6,C,54.6,3
410346,Colfax Elementary,Guilford,Colfax,"9112 West Market Street, Colfax, NC 27235",-80.007067,36.108247,Guilford County Schools,Colfax Elementary,32.5,B,79.7,2
490320,Collaborative College for Technology,Iredell,Statesville,"500 West Broad Street, Statesville, NC 28677",-80.893367,35.7830255,Iredell-Statesville Schools,Collaborative College for Technology,25,A,>95,1
260340,College Lakes Elementary,Cumberland,Fayetteville,"4963 Rosehill Road, Fayetteville, NC 28311",-78.8992069,35.1279792,Cumberland County Schools,College Lakes Elementary,67.9,C,57.7,3
650316,College Park Elementary,New Hanover,Castle Hayne,"5301 Sidbury Road, Castle Hayne, NC 28429",-77.8670812,34.3316535,New Hanover County Schools,College Park Elementary,73.3,C,48.1,3
41H000,College Prep and Leadership Academy,Guilford,Jamestown,"4201 Furniture Avenue, Jamestown, NC 27282",-79.922666,35.968148,Charter Schools,College Prep and Leadership Academy,62,D,46.4,3
650420,College Road Early Childhood Center,New Hanover,Wilmington,"4905 South College Rd, Wilmington, NC 28412",-77.8912531,34.1492082,aanomatch,aanomatch,,,,
140308,Collettsville School,Caldwell,Collettsville,"4690 Collettsville School Rd, Collettsville, NC 28611",-81.671332,35.928724,Caldwell County Schools,Collettsville School,62.2,B,68.4,2
600344,Collinswood Language Academy,Mecklenburg,Charlotte,"4000 Applegate Rd, Charlotte, NC 28209",-80.871415,35.184805,Charlotte-Mecklenburg Schools,Collinswood Language Academy,49.4,B,73.4,2
130311,Coltrane-Webb Elementary,Cabarrus,Concord,"61 Spring St NW, Concord, NC 28025",-80.5862376,35.410651,Cabarrus County Schools,Coltrane-Webb Elementary,47.1,C,62.3,2
890304,Columbia High,Tyrrell,Columbia,"902 Main St, Columbia, NC 27925",-76.246185,35.919445,Tyrrell County Schools,Columbia High,43.3,C,31.4,4
890306,Columbia Middle,Tyrrell,Columbia,"920 Main Street, Columbia, NC 27925",-76.246185,35.919445,Tyrrell County Schools,Columbia Middle,43.5,D,37,4
24N000,Columbus Charter School,Columbus,Whiteville,"35 Bacon's Way, Whiteville, NC 28472",-78.7730036,34.4055494,Charter Schools,Columbus Charter School,69.7,C,61.2,2
240LEA,Columbus County Schools,Columbus,Whiteville,"817 Washington Street, Whiteville, NC 28472",-78.72054,34.335952,aanomatch,aanomatch,,,,
920376,Combs Elementary,Wake,Raleigh,"2001 Lorimer Rd, Raleigh, NC 27606",-78.7015025,35.7749931,Wake County Schools,Combs Elementary,36.8,B,74.1,2
520308,Comfort Elementary,Jones,Comfort,"4384 Hwy 41 West, Comfort, NC 28522",-77.5120497,35.0075269,Jones County Schools,Comfort Elementary,71.2,C,55.8,3
60U000,Commonwealth High,Mecklenburg,Charlotte,"5112 Central Ave, Charlotte, NC 28205",-80.7584212,35.2095612,aanomatch,aanomatch,,,,
110303,Community High School,Buncombe,Swannanoa,"235 Old US 70, Swannanoa, NC 28778",-82.4342289,35.5930578,aanomatch,aanomatch,,,,
600345,Community House Middle,Mecklenburg,Charlotte,"9500 Community House Rd, Charlotte, NC 28277",-80.8239031,35.0360965,Charlotte-Mecklenburg Schools,Community House Middle,12.4,A,85.1,1
60I000,Community School of Davidson,Mecklenburg,Davidson,"404 Armour Street, Davidson, NC 28036",-80.853447,35.507976,Charter Schools,Community School of Davidson,<5,A,82.7,1
130314,Concord High,Cabarrus,Concord,"481 Burrage Road NE, Concord, NC 28025",-80.5813117,35.4328659,Cabarrus County Schools,Concord High,51.3,B,55,3
130313,Concord Middle,Cabarrus,Concord,"1500 Gold Rush Drive, Concord, NC 28025",-80.5524389,35.4220649,Cabarrus County Schools,Concord Middle,50.5,D,36.6,4
920380,Conn Elementary,Wake,Raleigh,"1220 Brookside Dr, Raleigh, NC 27604",-78.622752,35.796114,Wake County Schools,Conn Elementary,40,C,65.5,2
920381,Connections Academy,Wake,Cary,"1280 Buck Jones Rd, Cary, NC 27606",-78.741961,35.766685,aanomatch,aanomatch,,,,
182304,Conover Special Education,Catawba,Conover,"108 7th Street Place SW, Conover, NC 28613",-81.222171,35.701191,aanomatch,aanomatch,,,,
540308,Contentnea-Savannah School,Lenoir,Kinston,"3400 Ferrell Road, Kinston, NC 28501",-77.5211855,35.3200449,Lenoir County Public Schools,Contentnea-Savannah School,72.5,C,48.7,3
660308,Conway Middle,Northampton,Conway,"400 East Main Street, Conway, NC 27820",-77.2238997,36.4382772,Northampton County Schools,Conway Middle,64.5,F,23.9,4
340351,Cook Literacy Model School,Forsyth,Winston-Salem,"920 11th Street NW, Winston-Salem, NC 27105",-80.2568315,36.1078495,Forsyth County Schools,Cook Literacy Model School,87.8,D,28.5,4
490324,Cool Spring Elementary,Iredell,Cleveland,"1969 Mocksville Hwy, Cleveland, NC 27013",-80.7324684,35.8466897,Iredell-Statesville Schools,Cool Spring Elementary,45.1,B,76.3,2
300308,Cooleemee Elementary,Davie,Cooleemee,"136 Marginal St, Cooleemee, NC 27014",-80.5521847,35.8157831,Davie County Schools,Cooleemee Elementary,75.6,C,57.3,3
510330,Cooper Academy,Johnston,Clayton,"849 North Mial St, Clayton, NC 27520",-78.451331,35.656123,Johnston County Schools,Cooper Academy,59.2,D,31,4
640324,Coopers Elementary,Nash,Elm City,"6833 NC Highway 58, Elm City, NC 27822",-77.9468116,35.8851156,Nash-Rocky Mount Schools,Coopers Elementary,54.3,B,65.6,2
860308,Copeland Elementary,Surry,Dobson,"948 Copeland School Road, Dobson, NC 27017",-80.65087,36.337156,Surry County Schools,Copeland Elementary,73.5,B,68.5,2
770364,Cordova Middle,Richmond,Cordova,"194 Church St, Cordova, NC 28330",-79.8194792,34.912509,Richmond County Schools,Cordova Middle,89.1,C,50,3
510333,Corinth Holders High,Johnston,Wendell,"6875 Applewhite Rd, Wendell, NC 27591",-78.33781,35.724761,Johnston County Schools,Corinth Holders High,23,B,62.7,2
510332,Corinth-Holders Elementary,Johnston,Zebulon,"3976 NC 231, Zebulon, NC 27597",-78.297015,35.7331302,Johnston County Schools,Corinth-Holders Elementary,59.1,D,44.3,3
300310,Cornatzer Elementary,Davie,Mocksville,"552 Cornatzer Road, Mocksville, NC 27028",-80.492513,35.898866,Davie County Schools,Cornatzer Elementary,49.9,B,64.9,2
600346,Cornelius Elementary,Mecklenburg,Cornelius,"21126 Catawba Ave, Cornelius, NC 28031",-80.863912,35.481845,Charlotte-Mecklenburg Schools,Cornelius Elementary,25.9,B,73.2,2
41G000,Cornerstone Charter Academy-CFA,Guilford,Greensboro,"7800 Airport Center Drive, Greensboro, NC 27409",-79.9609225,36.1115877,Charter Schools,Cornerstone Charter Academy-CFA,11.4,B,75.7,2
800328,Corriher Lipe Middle,Rowan,Landis,"214 West Rice St, Landis, NC 28088",-80.614895,35.5464994,Rowan-Salisbury Schools,Corriher Lipe Middle,60.6,D,43.7,3
60M000,Corvian Community School,Mecklenburg,Charlotte,"9501 David Taylor Dr, Charlotte, NC 28262",-80.7565163,35.3229011,Charter Schools,Corvian Community School,<5,B,74.6,2
360376,Costner Elementary,Gaston,Dallas,"353 Old 277 Loop Hwy, Dallas, NC 28034",-81.2275186,35.3273173,Gaston County Schools,Costner Elementary,49.5,C,55.8,3
600349,Cotswold Elementary,Mecklenburg,Charlotte,"300 Greenwich Rd, Charlotte, NC 28211",-80.797461,35.179362,Charlotte-Mecklenburg Schools,Cotswold IB Elementary,35.3,C,59.9,3
600351,Coulwood STEM Academy,Mecklenburg,Charlotte,"500 Kentberry Dr, Charlotte, NC 28214",-80.9446695,35.3039568,Charlotte-Mecklenburg Schools,Coulwood STEM Academy,44.3,C,53.3,3
990308,Courtney Elementary,Yadkin,Yadkinville,"2529 Courtney-Huntsville Rd, Yadkinville, NC 27055",-80.6023699,36.067118,Yadkin County Schools,Courtney Elementary,64,B,71.8,2
950316,Cove Creek Elementary,Watauga,Vilas,"930 Vanderpool Rd, Vilas, NC 28692",-81.748295,36.25701,Watauga County Schools,Cove Creek Elementary,48.6,B,65.4,2
830312,Covington Street Elementary,Scotland,Laurinburg,"615 W Covington St, Laurinburg, NC 28352",-79.471804,34.772452,Scotland County Schools,Covington Street Elementary,82.6,F,27.7,4
130319,Cox Mill Elementary,Cabarrus,Concord,"1450 Cox Mill Road, Concord, NC 28027",-80.7323554,35.3938667,Cabarrus County Schools,Cox Mill Elementary,6.1,A,85.9,1
130307,Cox Mill High School,Cabarrus,Concord,"1355 Cox Mill Rd, Concord, NC 28027",-80.726908,35.395328,Cabarrus County Schools,Cox Mill High School,10.3,A,79.8,2
630317,Crain's Creek Middle,Moore,Carthage,"4631 Union Church Rd, Carthage, NC 28327",-79.2853698,35.2724886,Moore County Schools,Crain's Creek Middle,50.9,C,56.7,3
360380,Cramerton Middle,Gaston,Cramerton,"601 Cramer Mountain Road, Cramerton, NC 28032",-81.0864172,35.2231811,Gaston County Schools,Cramerton Middle,24.1,B,79.2,2
60310,Cranberry Middle,Avery,Elk Park,"6230 North Highway 19E, Elk Park, NC 28622",-81.965388,36.1466445,Avery County Schools,Cranberry Middle,53.2,B,77,2
250LEA,Craven County Schools,Craven,New Bern,"3600 Trent Road, New Bern, NC 28562",-77.0987937,35.0946201,aanomatch,aanomatch,,,,
250314,Craven Early College High,Craven,New Bern,"800 College Court, New Bern, NC 28562",-77.1022053,35.1103856,Craven County Schools,Craven Early College High,45.8,A,82.6,1
920384,Creech Road Elementary,Wake,Garner,"450 Creech Rd, Garner, NC 27529",-78.599874,35.714984,Wake County Schools,Creech Road Elementary,73.3,C,47,3
390316,Creedmoor Elementary,Granville,Creedmoor,"305 E Wilton Ave, Creedmoor, NC 27522",-78.6783867,36.1233173,Granville County Schools,Creedmoor Elementary,76.2,D,41.5,3
320319,"Creekside Elementary, Durham",Durham,Durham,"5321 Ephesus Church Road, Durham, NC 27707",-78.9937316,35.9278812,Durham Public Schools,Creekside Elementary,43.4,C,58.1,3
250316,"Creekside Elementary, New Bern",Craven,New Bern,"2790 Landscape Drive, New Bern, NC 28562",-77.0214521,35.0272327,Craven County Schools,Creekside Elementary,25.4,B,78.6,2
740330,"Creekside Elementary, Winterville",Pitt,Winterville,"431 Forlines Road, Winterville, NC 28590",-77.421865,35.535824,Pitt County Schools,Creekside Elementary,59.8,C,52.4,3
230324,Crest High,Cleveland,Shelby,"800 Old Boiling Springs, Shelby, NC 28152",-81.613426,35.274696,Cleveland County Schools,Crest High,44.9,C,52.4,3
230328,Crest Middle,Cleveland,Shelby,"315 Beaverdam Church Rd, Shelby, NC 28150",-81.618871,35.276274,Cleveland County Schools,Crest Middle,54.2,B,67.6,2
600353,Crestdale Middle,Mecklenburg,Matthews,"940 Sam Newell Rd, Matthews, NC 28105",-80.7177456,35.1285982,Charlotte-Mecklenburg Schools,Crestdale Middle,25.8,B,78.4,2
940306,Creswell Elementary,Washington,Creswell,"200 South Seventh St, Creswell, NC 27928",-76.3970472,35.870622,Washington County Schools,Creswell Elementary,53.5,D,47.3,3
940308,Creswell High,Washington,Creswell,"115 West Middle Street, Creswell, NC 27928",-76.3971817,35.8688375,aanomatch,aanomatch,,,,
160314,Croatan High,Carteret,Newport,"1 Cougar Lane, Newport, NC 28570",-76.9504094,34.7161474,Carteret County Public Schools,Croatan High,33.1,A,75.5,2
600418,Croft Community Elementary,Mecklenburg,Charlotte,"4911 Hucks Rd, Charlotte, NC 28269",-80.805389,35.346554,Charlotte-Mecklenburg Schools,Croft Community Elementary,47.7,D,54.2,3
260354,Cross Creek Early College,Cumberland,Fayetteville,"1200 Murchison Road, Fayetteville, NC 28301",-78.8925902,35.0756898,Cumberland County Schools,Cross Creek Early College,61.4,A,>95,1
35A000,Crosscreek Charter School,Franklin,Louisburg,"306 Sandalwood Avenue, Louisburg, NC 27549",-78.2929867,36.0947206,Charter Schools,Crosscreek Charter School,25.9,C,56.9,3
60316,Crossnore Elementary,Avery,Crossnore,"1000 Walt Clark Road, Crossnore, NC 28616",-81.9254669,36.025739,Avery County Schools,Crossnore Elementary,58.5,C,56.2,3
490355,Crossroads Arts Sciences Early College,Iredell,Statesville,"476 N Center St, Statesville, NC 28677",-80.893496,35.7923821,Iredell-Statesville Schools,Crossroads Arts Sciences Early College,38,A,92.7,1
920386,Crossroads FLEX,Wake,Cary,"5651 Dillard Dr, Cary, NC 27518",-78.7384472,35.7546682,Wake County Schools,Crossroads FLEX,<5,B,74.6,2
600352,Crown Point Elementary,Mecklenburg,Matthews,"3335 Sam Newell Rd, Matthews, NC 28105",-80.715051,35.159987,Charlotte-Mecklenburg Schools,Crown Point Elementary,63.3,C,62.1,2
460340,CS Brown High,Hertford,Winton,"102 CSB Dr, Winton, NC 27986",-76.9390878,36.3862004,Hertford County Schools,CS Brown High,37.3,A,69,2
681322,Culbreth Middle,Orange,Chapel Hill,"225 Culbreth Rd, Chapel Hill, NC 27516",-79.0671537,35.8900925,Chapel Hill-Carrboro Schools,Culbreth Middle,24.9,B,74.4,2
500304,Cullowhee Valley School,Jackson,Cullowhee,"240 Wisdom Drive, Cullowhee, NC 28723",-83.180794,35.293741,Jackson County Schools,Cullowhee Valley School,59.7,C,56.2,3
260LEA,Cumberland County Schools,Cumberland,Fayetteville,"2465 Gillespie Street, Fayetteville, NC 28306",-78.8963629,35.0142329,aanomatch,aanomatch,,,,
260347,Cumberland International Early CollegeHS,Cumberland,Fayetteville,"1200 Murchison Rd, J Knuckles Science Annex, Fayetteville, NC 28303",-78.8952089,35.0733686,Cumberland County Schools,Cumberland International Early College,53.1,A,86.8,1
260348,Cumberland Mills Elementary,Cumberland,Fayetteville,"2576 Hope Mills Road, Fayetteville, NC 28306",-78.969242,35.002474,Cumberland County Schools,Cumberland Mills Elementary,62.8,C,53.5,3
260700,Cumberland Polytechnic,Cumberland,Fayetteville,"2201 Hull Rd, Fayetteville, NC 28303",-78.9258784,35.0666422,Cumberland County Schools,Cumberland Polytechnic,51,A,>95,1
260352,Cumberland Road Elementary,Cumberland,Fayetteville,"2700 Cumberland Road, Fayetteville, NC 28306",-78.910729,35.021512,Cumberland County Schools,Cumberland Road Elementary,78.7,C,47.7,3
270306,Currituck County High,Currituck,Barco,"4203 Caratoke Hwy, Barco, NC 27917",-75.9679957,36.372479,Currituck County Schools,Currituck County High,24.3,C,52.1,3
270308,Currituck County Middle,Currituck,Barco,"4263 Caratoke Hwy, Barco, NC 27917",-75.959602,36.378103,Currituck County Schools,Currituck County Middle,36.3,C,51,3
270LEA,Currituck County Schools,Currituck,Currituck,"2958 Caratoke Hwy, Currituck, NC 27929",-76.0183225,36.4444137,aanomatch,aanomatch,,,,
900311,Cuthbertson High,Union,Waxhaw,"1400 Cuthbertson Rd, Waxhaw, NC 28173",-80.7391584,34.9754301,Union County Public Schools,Cuthbertson High,<5,A,87.6,1
900310,Cuthbertson Middle,Union,Waxhaw,"1520 Cuthbertson Rd, Waxhaw, NC 28173",-80.7407507,34.9739945,Union County Public Schools,Cuthbertson Middle,5.9,A,87.4,1
410376,Cyrus P Frazier Elementary,Guilford,Greensboro,"4215 Galway Drive, Greensboro, NC 27406",-79.8251234,36.0121973,Guilford County Schools,Cyrus P Frazier Elementary,69.3,D,44.4,3
210306,D F Walker Elementary,Chowan,Edenton,"125 Sandy Ridge Road, Edenton, NC 27932",-76.6541761,36.1635769,Edenton-Chowan Schools,D F Walker Elementary,66.6,C,59.5,3
740333,D H Conley High,Pitt,Greenville,"2006 Worthington Rd, Greenville, NC 27858",-77.324338,35.530176,Pitt County Schools,D H Conley High,28.9,B,60.6,2
640326,D S Johnson Elementary,Nash,Rocky Mount,"600 North Fairview Road, Rocky Mount, NC 27801",-77.7762744,35.9372313,Nash-Rocky Mount Schools,D S Johnson Elementary,84.8,F,21.1,4
650409,D.C. Virgo Preparatory Academy,New Hanover,Wilmington,"813 Nixon St, Wilmington, NC 28401",-77.940458,34.250692,Lab Schools,D.C. Virgo Preparatory Academy,74.9,F,26.4,4
910314,Dabney Elementary,Vance,Henderson,"150 Lanning Road, Henderson, NC 27537",-78.4817415,36.3309516,Vance County Schools,Dabney Elementary,65.9,C,48.4,3
790314,Dalton McMichael High,Rockingham,Mayodan,"6845 Hwy 135, Mayodan, NC 27027",-79.9426166,36.4172668,Rockingham County Schools,Dalton McMichael High,42.8,C,53.2,3
450308,Dana Elementary,Henderson,Hendersonville,"690 Ridge Road, Hendersonville, NC 28792",-82.3734968,35.3384002,Henderson County Schools,Dana Elementary,78,C,52.4,3
920388,Daniels Middle,Wake,Raleigh,"2816 Oberlin Rd, Raleigh, NC 27608",-78.6568108,35.8131213,Wake County Schools,Daniels Middle,31.3,B,68.2,2
280LEA,Dare County Schools,Dare,Nags Head,"3020 S. Wrightsville Ave, Nags Head, NC 27959",-75.6384021,35.9767401,aanomatch,aanomatch,,,,
280306,Dare Learning Academy,Dare,Manteo,"132 Russell Twiford Road, Manteo, NC 27954",-75.6599212,35.8918068,aanomatch,aanomatch,,,,
140312,Davenport A+ School,Caldwell,Lenoir,"901 College Avenue SW, Lenoir, NC 28645",-81.5393299,35.9117615,Caldwell County Schools,Davenport A+ School,77.2,C,55,3
600362,David Cox Road Elementary,Mecklenburg,Charlotte,"4215 David Cox Rd, Charlotte, NC 28269",-80.800904,35.336565,Charlotte-Mecklenburg Schools,David Cox Road Elementary,44,D,40.2,3
410430,David D Jones Elementary,Guilford,Greensboro,"502 South Street, Greensboro, NC 27406",-79.7978914,36.0555757,Guilford County Schools,David D Jones Elementary,48.7,B,67.3,2
29A000,Davidson Charter Academy CFA,aaUnknown,,,,,Charter Schools,Davidson Charter Academy CFA,22.7,D,42.3,3
290314,Davidson County High School,Davidson,Lexington,"2061 E Holly Grove Road, Lexington, NC 27292",-80.1889651,35.8169688,aanomatch,aanomatch,,,,
290LEA,Davidson County Schools,Davidson,Lexington,"250 County School Road, Lexington, NC 27292",-80.1995609,35.8171771,aanomatch,aanomatch,,,,
290315,Davidson Early College,Davidson,Lexington,"297 DCCC Road, Lexington, NC 27295",-80.18047,35.866896,Davidson County Schools,Davidson Early College,23.8,A,93.3,1
600357,Davidson Elementary,Mecklenburg,Davidson,"635 South St, Davidson, NC 28036",-80.848305,35.489737,Charlotte-Mecklenburg Schools,Davidson Elementary,13,B,81.8,1
880320,Davidson River School,Transylvania,Brevard,"970 Ecusta Rd, Brevard, NC 28712",-82.7041264,35.2587132,aanomatch,aanomatch,,,,
300314,Davie County Early College High,Davie,Mocksville,"1211 Salisbury Road, Mocksville, NC 27028",-80.5537072,35.8709912,Davie County Schools,Davie County Early College High,43.9,A,88.8,1
300312,Davie County High,Davie,Mocksville,"180 War Eagle Drive, Mocksville, NC 27028",-80.5354707,35.9712509,Davie County Schools,Davie County High,37.1,C,59,3
300LEA,Davie County Schools,Davie,Mocksville,"220 Cherry St, Mocksville, NC 27028",-80.5567355,35.8970536,aanomatch,aanomatch,,,,
920390,Davis Drive Elementary,Wake,Cary,"2151 Davis Drive, Cary, NC 27519",-78.8506202,35.7796682,Wake County Schools,Davis Drive Elementary,<5,A,91.1,1
920391,Davis Drive Middle,Wake,Cary,"2101 Davis Drive, Cary, NC 27519",-78.8507101,35.7777215,Wake County Schools,Davis Drive Middle,8.3,A,89,1
290316,Davis-Townsend Elementary,Davidson,Lexington,"975 Heath Church Road, Lexington, NC 27292",-80.163822,35.809032,Davidson County Schools,Davis-Townsend Elementary,42.7,B,67.6,2
780320,Deep Branch Elementary,Robeson,Lumberton,"4045 Deep Branch Road, Lumberton, NC 28360",-79.146015,34.630379,Robeson County Schools,Deep Branch Elementary,90.4,D,40.3,3
530312,Deep River Elementary,Lee,Sanford,"4000 Deep River Rd, Sanford, NC 27330",-79.1459458,35.5910402,Lee County Schools,Deep River Elementary,78.7,C,59.9,3
290320,Denton Elementary,Davidson,Denton,"305 W Salisbury Street, Denton, NC 27239",-80.1193913,35.6324092,Davidson County Schools,Denton Elementary,56.3,C,58.2,3
600365,Devonshire Elementary,Mecklenburg,Charlotte,"6500 Barrington Dr, Charlotte, NC 28215",-80.745853,35.245259,Charlotte-Mecklenburg Schools,Devonshire Elementary,58.2,D,42.4,3
610310,Deyton Elementary,Mitchell,Spruce Pine,"308 Harris Street, Spruce Pine, NC 28777",-82.0883315,35.909666,Mitchell County Schools,Deyton Elementary,59.2,B,65,2
340430,Diggs-Latham Elementary,Forsyth,Winston Salem,"986 Hutton Street, Winston Salem, NC 27101",-80.256586,36.07895,Forsyth County Schools,Diggs-Latham Elementary,66.7,D,35.4,4
96C000,Dillard Academy,Wayne,Goldsboro,"504 West Elm Street, Goldsboro, NC 27530",-78.0053124,35.3790074,Charter Schools,Dillard Academy,89.1,D,34,4
920393,Dillard Drive Elementary,Wake,Raleigh,"5018 Dillard Drive, Raleigh, NC 27606",-78.723609,35.753534,Wake County Schools,Dillard Drive Elementary,61.4,C,55.4,3
920394,Dillard Drive Middle,Wake,Raleigh,"5200 Dillard Drive, Raleigh, NC 27606",-78.7237605,35.7522551,Wake County Schools,Dillard Drive Middle,48.4,D,54.2,3
960326,Dillard Middle,Wayne,Goldsboro,"1101 S Devereaux St, Goldsboro, NC 27530",-77.9947573,35.3685907,Wayne County Public Schools,Dillard Middle,94.8,F,18.1,5
600367,Dilworth Elementary,Mecklenburg,Charlotte,"405 E. Park Ave, Charlotte, NC 28203",-80.850803,35.212172,Charlotte-Mecklenburg Schools,Dilworth Elementary School Latta Campus,24.5,B,77.9,2
182700,Discovery High School,Catawba,Newton,"301 West 18th St, Newton, NC 28658",-81.2223326,35.6798213,Newton Conover City Schools,Discovery High School,18.6,A,91.2,1
260356,District No 7 Elementary,Cumberland,Wade,"5721 Smithfield Road, Wade, NC 28395",-78.7055017,35.1496016,Cumberland County Schools,District No 7 Elementary,50.7,B,70.6,2
670314,Dixon Elementary,Onslow,Holly Ridge,"130 Betty Dixon Rd, Holly Ridge, NC 28445",-77.4448989,34.5589316,Onslow County Schools,Dixon Elementary,33.8,B,74.6,2
670320,Dixon High,Onslow,Holly Ridge,"160 Dixon School Rd, Holly Ridge, NC 28445",-77.4799947,34.5846325,Onslow County Schools,Dixon High,36.7,B,62.3,2
670318,Dixon Middle,Onslow,Sneads Ferry,"118 Ridgefield Ave, Sneads Ferry, NC 28460",-77.4359413,34.5429899,Onslow County Schools,Dixon Middle,40.6,C,58.4,3
510334,Dixon Road Elementary,Johnston,Willow Spring,"835 Dixon Road, Willow Spring, NC 27592",-78.594282,35.532579,Johnston County Schools,Dixon Road Elementary,37.8,C,60,2
860312,Dobson Elementary,Surry,Dobson,"400 W Atkins Street, Dobson, NC 27017",-80.726201,36.394853,Surry County Schools,Dobson Elementary,64.6,B,70,2
800359,Dole Elementary,Rowan,Salisbury,"465 Choate Rd, Salisbury, NC 28146",-80.4254179,35.6694699,Rowan-Salisbury Schools,Dole Elementary,61.6,D,28.6,4
470310,Don D Steed Elementary,Hoke,Raeford,"800 Phillipi Church Rd, Raeford, NC 28376",-79.1602256,34.9813916,Hoke County Schools,Don D Steed Elementary,52.5,B,73.5,2
